$GPGGA,130000.00,5003.96734314,N,01955.22908217,E,1,20,0.6,230.351,M,41.998,M,,*63

$GPGGA,130001.00,5003.96734125,N,01955.22908716,E,1,20,0.6,230.355,M,41.998,M,,*62

$GPGGA,130002.00,5003.96733861,N,01955.22909434,E,1,20,0.6,230.363,M,41.998,M,,*68

$GPGGA,130003.00,5003.96733783,N,01955.22909480,E,1,20,0.6,230.370,M,41.998,M,,*67

$GPGGA,130004.00,5003.96733456,N,01955.22909715,E,1,20,0.6,230.363,M,41.998,M,,*66

$GPGGA,130005.00,5003.96733217,N,01955.22910078,E,1,20,0.6,230.365,M,41.998,M,,*66

$GPGGA,130006.00,5003.96732937,N,01955.22910698,E,1,20,0.6,230.369,M,41.998,M,,*69

$GPGGA,130007.00,5003.96732615,N,01955.22911096,E,1,20,0.6,230.369,M,41.998,M,,*6E

$GPGGA,130008.00,5003.96740214,N,01955.22923387,E,1,21,0.6,230.067,M,41.998,M,,*6F

$GPGGA,130009.00,5003.96739553,N,01955.22923491,E,1,21,0.6,230.076,M,41.998,M,,*64

$GPGGA,130010.00,5003.96739081,N,01955.22923126,E,1,21,0.6,230.095,M,41.998,M,,*62

$GPGGA,130011.00,5003.96762929,N,01955.22902167,E,1,21,0.6,229.949,M,41.998,M,,*60

$GPGGA,130012.00,5003.96762819,N,01955.22902454,E,1,21,0.6,229.944,M,41.998,M,,*69

$GPGGA,130013.00,5003.96762160,N,01955.22902182,E,1,21,0.6,229.948,M,41.998,M,,*6D

$GPGGA,130014.00,5003.96761763,N,01955.22901317,E,1,21,0.6,229.960,M,41.998,M,,*6B

$GPGGA,130015.00,5003.96761048,N,01955.22901139,E,1,21,0.6,229.973,M,41.998,M,,*68

$GPGGA,130016.00,5003.96760803,N,01955.22901036,E,1,21,0.6,229.969,M,41.998,M,,*68

$GPGGA,130017.00,5003.96760240,N,01955.22900546,E,1,21,0.6,229.983,M,41.998,M,,*63

$GPGGA,130018.00,5003.96759468,N,01955.22899641,E,1,21,0.6,229.998,M,41.998,M,,*65

$GPGGA,130019.00,5003.96759390,N,01955.22900173,E,1,21,0.6,229.984,M,41.998,M,,*6E

$GPGGA,130020.00,5003.96758985,N,01955.22899300,E,1,21,0.6,229.986,M,41.998,M,,*6E

$GPGGA,130021.00,5003.96758782,N,01955.22899039,E,1,21,0.6,229.995,M,41.998,M,,*6D

$GPGGA,130022.00,5003.96758715,N,01955.22898692,E,1,21,0.6,230.009,M,41.998,M,,*62

$GPGGA,130023.00,5003.96758636,N,01955.22898399,E,1,21,0.6,230.026,M,41.998,M,,*60

$GPGGA,130024.00,5003.96758163,N,01955.22897701,E,1,21,0.6,230.052,M,41.998,M,,*69

$GPGGA,130025.00,5003.96758169,N,01955.22897930,E,1,21,0.6,230.039,M,41.998,M,,*63

$GPGGA,130026.00,5003.96757819,N,01955.22897956,E,1,21,0.6,230.042,M,41.998,M,,*6D

$GPGGA,130027.00,5003.96758021,N,01955.22898175,E,1,21,0.6,230.046,M,41.998,M,,*62

$GPGGA,130028.00,5003.96758584,N,01955.22898571,E,1,21,0.6,230.034,M,41.998,M,,*62

$GPGGA,130029.00,5003.96758657,N,01955.22898362,E,1,21,0.6,230.040,M,41.998,M,,*69

$GPGGA,130030.00,5003.96759072,N,01955.22898789,E,1,21,0.6,230.041,M,41.998,M,,*61

$GPGGA,130031.00,5003.96764477,N,01955.22906058,E,1,21,0.6,229.837,M,41.998,M,,*63

$GPGGA,130032.00,5003.96764706,N,01955.22905786,E,1,21,0.6,229.826,M,41.998,M,,*62

$GPGGA,130033.00,5003.96764402,N,01955.22904747,E,1,21,0.6,229.838,M,41.998,M,,*67

$GPGGA,130034.00,5003.96764051,N,01955.22904852,E,1,21,0.6,229.838,M,41.998,M,,*69

$GPGGA,130035.00,5003.96763293,N,01955.22903827,E,1,21,0.6,229.858,M,41.998,M,,*60

$GPGGA,130036.00,5003.96763233,N,01955.22904007,E,1,21,0.6,229.868,M,41.998,M,,*67

$GPGGA,130037.00,5003.96762497,N,01955.22903307,E,1,21,0.6,229.883,M,41.998,M,,*6E

$GPGGA,130038.00,5003.96762212,N,01955.22902445,E,1,21,0.6,229.898,M,41.998,M,,*60

$GPGGA,130039.00,5003.96761509,N,01955.22901469,E,1,21,0.6,229.900,M,41.998,M,,*62

$GPGGA,130040.00,5003.96760890,N,01955.22900654,E,1,21,0.6,229.910,M,41.998,M,,*6C

$GPGGA,130041.00,5003.96760949,N,01955.22900585,E,1,21,0.6,229.899,M,41.998,M,,*67

$GPGGA,130042.00,5003.96760501,N,01955.22899978,E,1,21,0.6,229.899,M,41.998,M,,*6B

$GPGGA,130043.00,5003.96759875,N,01955.22899146,E,1,21,0.6,229.899,M,41.998,M,,*6B

$GPGGA,130044.00,5003.96759691,N,01955.22898679,E,1,21,0.6,229.902,M,41.998,M,,*61

$GPZDA,130044.016,06,03,2014,00,00*51

$GPGGA,130045.00,5003.96759158,N,01955.22898164,E,1,21,0.6,229.912,M,41.998,M,,*68

$GPGGA,130046.00,5003.96758953,N,01955.22897952,E,1,21,0.6,229.915,M,41.998,M,,*6C

$GPGGA,130047.00,5003.96758527,N,01955.22897911,E,1,21,0.6,229.917,M,41.998,M,,*67

$GPGGA,130048.00,5003.96758468,N,01955.22898045,E,1,21,0.6,229.917,M,41.998,M,,*65

$GPGGA,130049.00,5003.96758400,N,01955.22897889,E,1,21,0.6,229.920,M,41.998,M,,*69

$GPGGA,130050.00,5003.96758281,N,01955.22898138,E,1,21,0.6,229.917,M,41.998,M,,*66

$GPGGA,130051.00,5003.96758115,N,01955.22898390,E,1,21,0.6,229.913,M,41.998,M,,*6D

$GPGGA,130052.00,5003.96757913,N,01955.22897903,E,1,21,0.6,229.928,M,41.998,M,,*68

$GPGGA,130053.00,5003.96758029,N,01955.22897764,E,1,21,0.6,229.931,M,41.998,M,,*61

$GPGGA,130054.00,5003.96758195,N,01955.22898359,E,1,21,0.6,229.935,M,41.998,M,,*61

$GPGGA,130055.00,5003.96757837,N,01955.22897834,E,1,21,0.6,229.934,M,41.998,M,,*60

$GPGGA,130056.00,5003.96757617,N,01955.22897452,E,1,21,0.6,229.932,M,41.998,M,,*65

$GPGGA,130057.00,5003.96757488,N,01955.22896989,E,1,21,0.6,229.944,M,41.998,M,,*6B

$GPGGA,130058.00,5003.96757372,N,01955.22896807,E,1,21,0.6,229.945,M,41.998,M,,*60

$GPGGA,130059.00,5003.96757321,N,01955.22896738,E,1,21,0.6,229.941,M,41.998,M,,*60

$GPGGA,130100.00,5003.96757345,N,01955.22897056,E,1,21,0.6,229.944,M,41.998,M,,*64

$GPGGA,130101.00,5003.96757944,N,01955.22897757,E,1,21,0.6,229.927,M,41.998,M,,*6D

$GPGGA,130102.00,5003.96756921,N,01955.22896944,E,1,21,0.6,229.954,M,41.998,M,,*65

$GPGGA,130103.00,5003.96756616,N,01955.22896475,E,1,21,0.6,229.951,M,41.998,M,,*65

$GPGGA,130104.00,5003.96756311,N,01955.22896331,E,1,21,0.6,229.957,M,41.998,M,,*61

$GPGGA,130105.00,5003.96756281,N,01955.22896569,E,1,21,0.6,229.956,M,41.998,M,,*62

$GPGGA,130106.00,5003.96756436,N,01955.22897055,E,1,21,0.6,229.942,M,41.998,M,,*65

$GPGGA,130107.00,5003.96756310,N,01955.22897595,E,1,21,0.6,229.935,M,41.998,M,,*6E

$GPGGA,130108.00,5003.96756585,N,01955.22898222,E,1,21,0.6,229.924,M,41.998,M,,*6F

$GPGGA,130109.00,5003.96756801,N,01955.22899225,E,1,21,0.6,229.902,M,41.998,M,,*6D

$GPGGA,130110.00,5003.96756801,N,01955.22899423,E,1,21,0.6,229.896,M,41.998,M,,*69

$GPGGA,130111.00,5003.96756473,N,01955.22899363,E,1,21,0.6,229.908,M,41.998,M,,*64

$GPGGA,130112.00,5003.96756505,N,01955.22899386,E,1,21,0.6,229.915,M,41.998,M,,*60

$GPGGA,130113.00,5003.96756249,N,01955.22899655,E,1,21,0.6,229.916,M,41.998,M,,*66

$GPGGA,130114.00,5003.96756052,N,01955.22900131,E,1,21,0.6,229.913,M,41.998,M,,*68

$GPGGA,130115.00,5003.96755822,N,01955.22899975,E,1,21,0.6,229.918,M,41.998,M,,*67

$GPGGA,130116.00,5003.96755524,N,01955.22900122,E,1,21,0.6,229.919,M,41.998,M,,*65

$GPGGA,130117.00,5003.96755565,N,01955.22900284,E,1,21,0.6,229.918,M,41.998,M,,*6F

$GPGGA,130118.00,5003.96755474,N,01955.22900364,E,1,21,0.6,229.928,M,41.998,M,,*6D

$GPGGA,130119.00,5003.96755430,N,01955.22900046,E,1,21,0.6,229.930,M,41.998,M,,*66

$GPGGA,130120.00,5003.96755119,N,01955.22900211,E,1,21,0.6,229.939,M,41.998,M,,*6B

$GPGGA,130121.00,5003.96755061,N,01955.22900151,E,1,21,0.6,229.952,M,41.998,M,,*6E

$GPGGA,130122.00,5003.96754927,N,01955.22900040,E,1,21,0.6,229.960,M,41.998,M,,*67

$GPGGA,130123.00,5003.96754738,N,01955.22899777,E,1,21,0.6,229.965,M,41.998,M,,*61

$GPGGA,130124.00,5003.96754745,N,01955.22899682,E,1,21,0.6,229.973,M,41.998,M,,*60

$GPGGA,130125.00,5003.96754963,N,01955.22899257,E,1,21,0.6,229.982,M,41.998,M,,*69

$GPGGA,130126.00,5003.96755197,N,01955.22899403,E,1,21,0.6,229.994,M,41.998,M,,*68

$GPGGA,130127.00,5003.96754932,N,01955.22899029,E,1,21,0.6,229.998,M,41.998,M,,*6F

$GPGGA,130128.00,5003.96754980,N,01955.22898779,E,1,21,0.6,229.994,M,41.998,M,,*66

$GPGGA,130129.00,5003.96754999,N,01955.22898940,E,1,21,0.6,230.000,M,41.998,M,,*67

$GPGGA,130130.00,5003.96754924,N,01955.22898840,E,1,21,0.6,229.994,M,41.998,M,,*64

$GPGGA,130131.00,5003.96754899,N,01955.22898763,E,1,21,0.6,229.995,M,41.998,M,,*6D

$GPGGA,130132.00,5003.96755118,N,01955.22898890,E,1,21,0.6,229.999,M,41.998,M,,*60

$GPGGA,130133.00,5003.96755233,N,01955.22898740,E,1,21,0.6,229.996,M,41.998,M,,*66

$GPGGA,130134.00,5003.96754971,N,01955.22898276,E,1,21,0.6,229.990,M,41.998,M,,*6B

$GPGGA,130135.00,5003.96754669,N,01955.22897912,E,1,21,0.6,229.982,M,41.998,M,,*69

$GPGGA,130136.00,5003.96754438,N,01955.22897755,E,1,21,0.6,229.986,M,41.998,M,,*65

$GPGGA,130137.00,5003.96754517,N,01955.22897867,E,1,21,0.6,229.982,M,41.998,M,,*62

$GPGGA,130138.00,5003.96754400,N,01955.22897891,E,1,21,0.6,229.976,M,41.998,M,,*68

$GPGGA,130139.00,5003.96754401,N,01955.22898151,E,1,21,0.6,229.973,M,41.998,M,,*67

$GPGGA,130140.00,5003.96754385,N,01955.22898152,E,1,21,0.6,229.981,M,41.998,M,,*6C

$GPGGA,130141.00,5003.96754146,N,01955.22897739,E,1,21,0.6,229.992,M,41.998,M,,*66

$GPGGA,130142.00,5003.96754350,N,01955.22897897,E,1,21,0.6,229.998,M,41.998,M,,*61

$GPGGA,130143.00,5003.96754278,N,01955.22897762,E,1,21,0.6,229.999,M,41.998,M,,*6F

$GPGGA,130144.00,5003.96754395,N,01955.22897708,E,1,21,0.6,230.006,M,41.998,M,,*61

$GPZDA,130144.015,06,03,2014,00,00*53

$GPGGA,130145.00,5003.96754454,N,01955.22897868,E,1,21,0.6,229.999,M,41.998,M,,*64

$GPGGA,130146.00,5003.96753857,N,01955.22897611,E,1,21,0.6,230.007,M,41.998,M,,*69

$GPGGA,130147.00,5003.96753562,N,01955.22898010,E,1,21,0.6,229.996,M,41.998,M,,*62

$GPGGA,130148.00,5003.96753039,N,01955.22897756,E,1,21,0.6,229.998,M,41.998,M,,*62

$GPGGA,130149.00,5003.96752436,N,01955.22897920,E,1,21,0.6,230.006,M,41.998,M,,*60

$GPGGA,130150.00,5003.96752396,N,01955.22897954,E,1,21,0.6,230.005,M,41.998,M,,*65

$GPGGA,130151.00,5003.96752325,N,01955.22898480,E,1,21,0.6,230.002,M,41.998,M,,*60

$GPGGA,130152.00,5003.96752072,N,01955.22898740,E,1,21,0.6,230.011,M,41.998,M,,*6F

$GPGGA,130153.00,5003.96752041,N,01955.22899116,E,1,21,0.6,230.012,M,41.998,M,,*69

$GPGGA,130154.00,5003.96751598,N,01955.22899580,E,1,21,0.6,230.015,M,41.998,M,,*60

$GPGGA,130155.00,5003.96751753,N,01955.22900155,E,1,21,0.6,230.011,M,41.998,M,,*6D

$GPGGA,130156.00,5003.96751413,N,01955.22900274,E,1,21,0.6,230.006,M,41.998,M,,*6F

$GPGGA,130157.00,5003.96751119,N,01955.22900394,E,1,21,0.6,230.014,M,41.998,M,,*6D

$GPGGA,130158.00,5003.96750982,N,01955.22901096,E,1,21,0.6,230.009,M,41.998,M,,*65

$GPGGA,130159.00,5003.96750895,N,01955.22901656,E,1,21,0.6,230.012,M,41.998,M,,*63

$GPGGA,130200.00,5003.96751054,N,01955.22902193,E,1,21,0.6,230.012,M,41.998,M,,*65

$GPGGA,130201.00,5003.96750797,N,01955.22902612,E,1,21,0.6,230.014,M,41.998,M,,*65

$GPGGA,130202.00,5003.96750991,N,01955.22902905,E,1,21,0.6,230.007,M,41.998,M,,*65

$GPGGA,130203.00,5003.96751071,N,01955.22903239,E,1,21,0.6,230.012,M,41.998,M,,*63

$GPGGA,130204.00,5003.96751176,N,01955.22902932,E,1,21,0.6,230.030,M,41.998,M,,*63

$GPGGA,130205.00,5003.96750905,N,01955.22902795,E,1,21,0.6,230.029,M,41.998,M,,*64

$GPGGA,130206.00,5003.96750228,N,01955.22902854,E,1,21,0.6,230.040,M,41.998,M,,*6E

$GPGGA,130207.00,5003.96750198,N,01955.22902929,E,1,21,0.6,230.041,M,41.998,M,,*6D

$GPGGA,130208.00,5003.96749892,N,01955.22902786,E,1,21,0.6,230.047,M,41.998,M,,*64

$GPGGA,130209.00,5003.96749650,N,01955.22902815,E,1,21,0.6,230.046,M,41.998,M,,*61

$GPGGA,130210.00,5003.96749577,N,01955.22903008,E,1,21,0.6,230.046,M,41.998,M,,*6A

$GPGGA,130211.00,5003.96749365,N,01955.22902777,E,1,21,0.6,230.044,M,41.998,M,,*62

$GPGGA,130212.00,5003.96749374,N,01955.22902415,E,1,21,0.6,230.043,M,41.998,M,,*61

$GPGGA,130213.00,5003.96749117,N,01955.22902586,E,1,21,0.6,230.043,M,41.998,M,,*6C

$GPGGA,130214.00,5003.96748796,N,01955.22902509,E,1,21,0.6,230.044,M,41.998,M,,*65

$GPGGA,130215.00,5003.96748566,N,01955.22902161,E,1,21,0.6,230.046,M,41.998,M,,*61

$GPGGA,130216.00,5003.96748993,N,01955.22902379,E,1,21,0.6,230.040,M,41.998,M,,*69

$GPGGA,130217.00,5003.96749039,N,01955.22902693,E,1,21,0.6,230.038,M,41.998,M,,*6E

$GPGGA,130218.00,5003.96749187,N,01955.22903208,E,1,21,0.6,230.034,M,41.998,M,,*6E

$GPGGA,130219.00,5003.96748703,N,01955.22903152,E,1,21,0.6,230.027,M,41.998,M,,*6A

$GPGGA,130220.00,5003.96748237,N,01955.22903477,E,1,21,0.6,230.031,M,41.998,M,,*67

$GPGGA,130221.00,5003.96748147,N,01955.22903688,E,1,21,0.6,230.030,M,41.998,M,,*61

$GPGGA,130222.00,5003.96747822,N,01955.22903343,E,1,21,0.6,230.033,M,41.998,M,,*66

$GPGGA,130223.00,5003.96747848,N,01955.22902985,E,1,21,0.6,230.038,M,41.998,M,,*61

$GPGGA,130224.00,5003.96747981,N,01955.22902981,E,1,21,0.6,230.038,M,41.998,M,,*66

$GPGGA,130225.00,5003.96748288,N,01955.22902921,E,1,21,0.6,230.039,M,41.998,M,,*61

$GPGGA,130226.00,5003.96748063,N,01955.22902774,E,1,21,0.6,230.045,M,41.998,M,,*60

$GPGGA,130227.00,5003.96747980,N,01955.22902860,E,1,21,0.6,230.044,M,41.998,M,,*61

$GPGGA,130228.00,5003.96748024,N,01955.22902749,E,1,21,0.6,230.050,M,41.998,M,,*67

$GPGGA,130229.00,5003.96748254,N,01955.22902800,E,1,21,0.6,230.042,M,41.998,M,,*62

$GPGGA,130230.00,5003.96747994,N,01955.22902908,E,1,21,0.6,230.058,M,41.998,M,,*60

$GPGGA,130231.00,5003.96748015,N,01955.22902748,E,1,21,0.6,230.049,M,41.998,M,,*64

$GPGGA,130232.00,5003.96748030,N,01955.22902778,E,1,21,0.6,230.053,M,41.998,M,,*68

$GPGGA,130233.00,5003.96747943,N,01955.22903330,E,1,21,0.6,230.049,M,41.998,M,,*69

$GPGGA,130234.00,5003.96747563,N,01955.22903529,E,1,21,0.6,230.057,M,41.998,M,,*61

$GPGGA,130235.00,5003.96747744,N,01955.22903859,E,1,21,0.6,230.054,M,41.998,M,,*6E

$GPGGA,130236.00,5003.96747903,N,01955.22903935,E,1,21,0.6,230.063,M,41.998,M,,*6F

$GPGGA,130237.00,5003.96747406,N,01955.22904300,E,1,21,0.6,230.066,M,41.998,M,,*68

$GPGGA,130238.00,5003.96747185,N,01955.22904729,E,1,21,0.6,230.076,M,41.998,M,,*67

$GPGGA,130239.00,5003.96747087,N,01955.22905005,E,1,21,0.6,230.072,M,41.998,M,,*69

$GPGGA,130240.00,5003.96746921,N,01955.22905127,E,1,21,0.6,230.072,M,41.998,M,,*62

$GPGGA,130241.00,5003.96746954,N,01955.22905486,E,1,21,0.6,230.068,M,41.998,M,,*64

$GPGGA,130242.00,5003.96746878,N,01955.22905610,E,1,21,0.6,230.070,M,41.998,M,,*6C

$GPGGA,130243.00,5003.96746710,N,01955.22905854,E,1,21,0.6,230.070,M,41.998,M,,*62

$GPGGA,130244.00,5003.96746820,N,01955.22905877,E,1,21,0.6,230.073,M,41.998,M,,*6B

$GPZDA,130244.016,06,03,2014,00,00*53

$GPGGA,130245.00,5003.96746571,N,01955.22905886,E,1,21,0.6,230.081,M,41.998,M,,*60

$GPGGA,130246.00,5003.96747071,N,01955.22905848,E,1,21,0.6,230.074,M,41.998,M,,*6F

$GPGGA,130247.00,5003.96746940,N,01955.22905714,E,1,21,0.6,230.076,M,41.998,M,,*60

$GPGGA,130248.00,5003.96746959,N,01955.22905339,E,1,21,0.6,230.084,M,41.998,M,,*61

$GPGGA,130249.00,5003.96746731,N,01955.22905341,E,1,21,0.6,230.092,M,41.998,M,,*68

$GPGGA,130250.00,5003.96746484,N,01955.22904882,E,1,21,0.6,230.082,M,41.998,M,,*69

$GPGGA,130251.00,5003.96746072,N,01955.22904314,E,1,21,0.6,230.078,M,41.998,M,,*64

$GPGGA,130252.00,5003.96745830,N,01955.22904102,E,1,21,0.6,230.068,M,41.998,M,,*6E

$GPGGA,130253.00,5003.96745598,N,01955.22904009,E,1,21,0.6,230.066,M,41.998,M,,*64

$GPGGA,130254.00,5003.96745200,N,01955.22903802,E,1,21,0.6,230.078,M,41.998,M,,*6E

$GPGGA,130255.00,5003.96745049,N,01955.22903858,E,1,21,0.6,230.073,M,41.998,M,,*64

$GPGGA,130256.00,5003.96744775,N,01955.22903869,E,1,21,0.6,230.074,M,41.998,M,,*6B

$GPGGA,130257.00,5003.96744527,N,01955.22903542,E,1,21,0.6,230.071,M,41.998,M,,*6E

$GPGGA,130258.00,5003.96744480,N,01955.22903494,E,1,21,0.6,230.074,M,41.998,M,,*62

$GPGGA,130259.00,5003.96744639,N,01955.22903370,E,1,21,0.6,230.071,M,41.998,M,,*6B

$GPGGA,130300.00,5003.96744431,N,01955.22903194,E,1,21,0.6,230.084,M,41.998,M,,*6E

$GPGGA,130301.00,5003.96744589,N,01955.22903478,E,1,21,0.6,230.084,M,41.998,M,,*6A

$GPGGA,130302.00,5003.96744472,N,01955.22903839,E,1,21,0.6,230.085,M,41.998,M,,*64

$GPGGA,130303.00,5003.96743986,N,01955.22903905,E,1,21,0.6,230.089,M,41.998,M,,*66

$GPGGA,130304.00,5003.96744266,N,01955.22903782,E,1,21,0.6,230.085,M,41.998,M,,*6E

$GPGGA,130305.00,5003.96743978,N,01955.22904163,E,1,21,0.6,230.097,M,41.998,M,,*61

$GPGGA,130306.00,5003.96744040,N,01955.22904279,E,1,21,0.6,230.105,M,41.998,M,,*65

$GPGGA,130307.00,5003.96743798,N,01955.22904385,E,1,21,0.6,230.112,M,41.998,M,,*65

$GPGGA,130308.00,5003.96743768,N,01955.22904650,E,1,21,0.6,230.113,M,41.998,M,,*69

$GPGGA,130309.00,5003.96743593,N,01955.22904525,E,1,21,0.6,230.129,M,41.998,M,,*66

$GPGGA,130310.00,5003.96743962,N,01955.22905001,E,1,21,0.6,230.131,M,41.998,M,,*67

$GPGGA,130311.00,5003.96744149,N,01955.22905329,E,1,21,0.6,230.129,M,41.998,M,,*60

$GPGGA,130312.00,5003.96743773,N,01955.22905568,E,1,21,0.6,230.142,M,41.998,M,,*65

$GPGGA,130313.00,5003.96744056,N,01955.22905664,E,1,21,0.6,230.139,M,41.998,M,,*60

$GPGGA,130314.00,5003.96743995,N,01955.22905514,E,1,21,0.6,230.148,M,41.998,M,,*64

$GPGGA,130315.00,5003.96743928,N,01955.22905779,E,1,21,0.6,230.152,M,41.998,M,,*61

$GPGGA,130316.00,5003.96743993,N,01955.22905959,E,1,21,0.6,230.144,M,41.998,M,,*69

$GPGGA,130317.00,5003.96744021,N,01955.22906222,E,1,21,0.6,230.151,M,41.998,M,,*6F

$GPGGA,130318.00,5003.96744027,N,01955.22906483,E,1,21,0.6,230.158,M,41.998,M,,*62

$GPGGA,130319.00,5003.96744176,N,01955.22906703,E,1,21,0.6,230.153,M,41.998,M,,*66

$GPGGA,130320.00,5003.96744100,N,01955.22906743,E,1,21,0.6,230.158,M,41.998,M,,*62

$GPGGA,130321.00,5003.96744083,N,01955.22906893,E,1,21,0.6,230.160,M,41.998,M,,*60

$GPGGA,130322.00,5003.96744096,N,01955.22907321,E,1,21,0.6,230.164,M,41.998,M,,*60

$GPGGA,130323.00,5003.96744016,N,01955.22907703,E,1,21,0.6,230.169,M,41.998,M,,*60

$GPGGA,130324.00,5003.96743847,N,01955.22907675,E,1,21,0.6,230.173,M,41.998,M,,*67

$GPGGA,130325.00,5003.96743616,N,01955.22907668,E,1,21,0.6,230.163,M,41.998,M,,*61

$GPGGA,130326.00,5003.96743413,N,01955.22907944,E,1,21,0.6,230.157,M,41.998,M,,*63

$GPGGA,130327.00,5003.96743279,N,01955.22908334,E,1,21,0.6,230.159,M,41.998,M,,*64

$GPGGA,130328.00,5003.96743124,N,01955.22908199,E,1,21,0.6,230.165,M,41.998,M,,*6A

$GPGGA,130329.00,5003.96743442,N,01955.22908327,E,1,21,0.6,230.160,M,41.998,M,,*6C

$GPGGA,130330.00,5003.96743610,N,01955.22908536,E,1,21,0.6,230.162,M,41.998,M,,*65

$GPGGA,130331.00,5003.96743726,N,01955.22908889,E,1,21,0.6,230.158,M,41.998,M,,*60

$GPGGA,130332.00,5003.96743888,N,01955.22908746,E,1,21,0.6,230.162,M,41.998,M,,*6D

$GPGGA,130333.00,5003.96743808,N,01955.22909039,E,1,21,0.6,230.162,M,41.998,M,,*6A

$GPGGA,130334.00,5003.96743659,N,01955.22909118,E,1,21,0.6,230.152,M,41.998,M,,*66

$GPGGA,130335.00,5003.96743221,N,01955.22909499,E,1,21,0.6,230.143,M,41.998,M,,*60

$GPGGA,130336.00,5003.96743080,N,01955.22909349,E,1,21,0.6,230.147,M,41.998,M,,*64

$GPGGA,130337.00,5003.96742963,N,01955.22909551,E,1,21,0.6,230.140,M,41.998,M,,*68

$GPGGA,130338.00,5003.96743083,N,01955.22909517,E,1,21,0.6,230.132,M,41.998,M,,*66

$GPGGA,130339.00,5003.96742948,N,01955.22909390,E,1,21,0.6,230.126,M,41.998,M,,*64

$GPGGA,130340.00,5003.96742720,N,01955.22909069,E,1,21,0.6,230.121,M,41.998,M,,*68

$GPGGA,130341.00,5003.96742092,N,01955.22909369,E,1,21,0.6,230.122,M,41.998,M,,*67

$GPGGA,130342.00,5003.96742036,N,01955.22909517,E,1,21,0.6,230.117,M,41.998,M,,*63

$GPGGA,130343.00,5003.96741757,N,01955.22909351,E,1,21,0.6,230.114,M,41.998,M,,*66

$GPGGA,130344.00,5003.96741578,N,01955.22909031,E,1,21,0.6,230.104,M,41.998,M,,*6A

$GPZDA,130344.016,06,03,2014,00,00*52

$GPGGA,130345.00,5003.96741532,N,01955.22908976,E,1,21,0.6,230.099,M,41.998,M,,*6B

$GPGGA,130346.00,5003.96741644,N,01955.22909019,E,1,21,0.6,230.097,M,41.998,M,,*65

$GPGGA,130347.00,5003.96741677,N,01955.22908844,E,1,21,0.6,230.087,M,41.998,M,,*64

$GPGGA,130348.00,5003.96741222,N,01955.22908451,E,1,21,0.6,230.091,M,41.998,M,,*60

$GPGGA,130349.00,5003.96741084,N,01955.22908033,E,1,21,0.6,230.081,M,41.998,M,,*6E

$GPGGA,130350.00,5003.96741060,N,01955.22908497,E,1,21,0.6,230.081,M,41.998,M,,*66

$GPGGA,130351.00,5003.96741035,N,01955.22908734,E,1,21,0.6,230.070,M,41.998,M,,*63

$GPGGA,130352.00,5003.96740604,N,01955.22908732,E,1,21,0.6,230.079,M,41.998,M,,*6A

$GPGGA,130353.00,5003.96740289,N,01955.22909239,E,1,21,0.6,230.078,M,41.998,M,,*64

$GPGGA,130354.00,5003.96740090,N,01955.22909341,E,1,21,0.6,230.071,M,41.998,M,,*6E

$GPGGA,130355.00,5003.96739926,N,01955.22909449,E,1,21,0.6,230.063,M,41.998,M,,*69

$GPGGA,130356.00,5003.96739777,N,01955.22909659,E,1,21,0.6,230.065,M,41.998,M,,*65

$GPGGA,130357.00,5003.96740038,N,01955.22909876,E,1,21,0.6,230.065,M,41.998,M,,*65

$GPGGA,130358.00,5003.96739842,N,01955.22910111,E,1,21,0.6,230.075,M,41.998,M,,*60

$GPGGA,130359.00,5003.96740027,N,01955.22910410,E,1,21,0.6,230.063,M,41.998,M,,*67

$GPGGA,130400.00,5003.96739853,N,01955.22910965,E,1,21,0.6,230.084,M,41.998,M,,*6F

$GPGGA,130401.00,5003.96740062,N,01955.22911141,E,1,21,0.6,230.087,M,41.998,M,,*66

$GPGGA,130402.00,5003.96740160,N,01955.22911445,E,1,21,0.6,230.091,M,41.998,M,,*60

$GPGGA,130403.00,5003.96740046,N,01955.22911542,E,1,21,0.6,230.104,M,41.998,M,,*6F

$GPGGA,130404.00,5003.96740436,N,01955.22911606,E,1,21,0.6,230.103,M,41.998,M,,*6F

$GPGGA,130405.00,5003.96740273,N,01955.22911774,E,1,21,0.6,230.116,M,41.998,M,,*69

$GPGGA,130406.00,5003.96740503,N,01955.22911980,E,1,21,0.6,230.113,M,41.998,M,,*6A

$GPGGA,130407.00,5003.96740288,N,01955.22912367,E,1,21,0.6,230.124,M,41.998,M,,*6B

$GPGGA,130408.00,5003.96740718,N,01955.22912766,E,1,21,0.6,230.106,M,41.998,M,,*6D

$GPGGA,130409.00,5003.96740126,N,01955.22912668,E,1,21,0.6,230.120,M,41.998,M,,*6C

$GPGGA,130410.00,5003.96739738,N,01955.22912645,E,1,21,0.6,230.142,M,41.998,M,,*68

$GPGGA,130411.00,5003.96739810,N,01955.22913306,E,1,21,0.6,230.136,M,41.998,M,,*6C

$GPGGA,130412.00,5003.96743487,N,01955.22915687,E,1,21,0.6,230.005,M,41.998,M,,*6B

$GPGGA,130413.00,5003.96745334,N,01955.22917001,E,1,20,0.6,229.941,M,41.998,M,,*69

$GPGGA,130414.00,5003.96745134,N,01955.22917259,E,1,20,0.6,229.934,M,41.998,M,,*61

$GPGGA,130415.00,5003.96745238,N,01955.22917357,E,1,20,0.6,229.929,M,41.998,M,,*6C

$GPGGA,130416.00,5003.96745025,N,01955.22917713,E,1,20,0.6,229.918,M,41.998,M,,*67

$GPGGA,130417.00,5003.96745134,N,01955.22918228,E,1,20,0.6,229.917,M,41.998,M,,*6A

$GPGGA,130418.00,5003.96745247,N,01955.22918755,E,1,20,0.6,229.905,M,41.998,M,,*6E

$GPGGA,130419.00,5003.96745207,N,01955.22919021,E,1,20,0.6,229.906,M,41.998,M,,*6D

$GPGGA,130420.00,5003.96745148,N,01955.22919656,E,1,20,0.6,229.893,M,41.998,M,,*64

$GPGGA,130421.00,5003.96745400,N,01955.22919852,E,1,20,0.6,229.895,M,41.998,M,,*60

$GPGGA,130422.00,5003.96745506,N,01955.22920562,E,1,20,0.6,229.882,M,41.998,M,,*66

$GPGGA,130423.00,5003.96745628,N,01955.22920498,E,1,20,0.6,229.882,M,41.998,M,,*6C

$GPGGA,130424.00,5003.96746263,N,01955.22920887,E,1,20,0.6,229.871,M,41.998,M,,*6D

$GPGGA,130425.00,5003.96746260,N,01955.22921609,E,1,20,0.6,229.860,M,41.998,M,,*66

$GPGGA,130426.00,5003.96746219,N,01955.22922146,E,1,20,0.6,229.848,M,41.998,M,,*6E

$GPGGA,130427.00,5003.96746492,N,01955.22922775,E,1,20,0.6,229.831,M,41.998,M,,*62

$GPGGA,130428.00,5003.96746268,N,01955.22923370,E,1,20,0.6,229.825,M,41.998,M,,*6B

$GPGGA,130429.00,5003.96746449,N,01955.22924091,E,1,20,0.6,229.812,M,41.998,M,,*60

$GPGGA,130430.00,5003.96746612,N,01955.22925039,E,1,20,0.6,229.792,M,41.998,M,,*60

$GPGGA,130431.00,5003.96746127,N,01955.22925141,E,1,20,0.6,229.782,M,41.998,M,,*6F

$GPGGA,130432.00,5003.96745755,N,01955.22925407,E,1,20,0.6,229.774,M,41.998,M,,*62

$GPGGA,130433.00,5003.96745642,N,01955.22925712,E,1,20,0.6,229.773,M,41.998,M,,*64

$GPGGA,130434.00,5003.96745077,N,01955.22925917,E,1,20,0.6,229.763,M,41.998,M,,*69

$GPGGA,130435.00,5003.96744725,N,01955.22926072,E,1,20,0.6,229.761,M,41.998,M,,*62

$GPGGA,130436.00,5003.96744541,N,01955.22925944,E,1,20,0.6,229.754,M,41.998,M,,*68

$GPGGA,130437.00,5003.96744470,N,01955.22925974,E,1,20,0.6,229.755,M,41.998,M,,*68

$GPGGA,130438.00,5003.96744297,N,01955.22926007,E,1,20,0.6,229.749,M,41.998,M,,*6B

$GPGGA,130439.00,5003.96744253,N,01955.22926012,E,1,20,0.6,229.747,M,41.998,M,,*68

$GPGGA,130440.00,5003.96744360,N,01955.22925496,E,1,20,0.6,229.745,M,41.998,M,,*6E

$GPGGA,130441.00,5003.96744256,N,01955.22925280,E,1,20,0.6,229.743,M,41.998,M,,*6C

$GPGGA,130442.00,5003.96744353,N,01955.22925286,E,1,20,0.6,229.740,M,41.998,M,,*6E

$GPGGA,130443.00,5003.96744397,N,01955.22925532,E,1,20,0.6,229.749,M,41.998,M,,*66

$GPGGA,130444.00,5003.96744365,N,01955.22925454,E,1,20,0.6,229.748,M,41.998,M,,*6C

$GPZDA,130444.016,06,03,2014,00,00*55

$GPGGA,130445.00,5003.96744549,N,01955.22925051,E,1,20,0.6,229.752,M,41.998,M,,*6F

$GPGGA,130446.00,5003.96744850,N,01955.22924835,E,1,20,0.6,229.759,M,41.998,M,,*69

$GPGGA,130447.00,5003.96744843,N,01955.22924577,E,1,20,0.6,229.770,M,41.998,M,,*6A

$GPGGA,130448.00,5003.96744597,N,01955.22924074,E,1,20,0.6,229.768,M,41.998,M,,*6E

$GPGGA,130449.00,5003.96744840,N,01955.22924042,E,1,20,0.6,229.780,M,41.998,M,,*6B

$GPGGA,130450.00,5003.96744947,N,01955.22923635,E,1,20,0.6,229.783,M,41.998,M,,*67

$GPGGA,130451.00,5003.96745026,N,01955.22923574,E,1,20,0.6,229.795,M,41.998,M,,*68

$GPGGA,130452.00,5003.96744871,N,01955.22923748,E,1,20,0.6,229.802,M,41.998,M,,*6C

$GPGGA,130453.00,5003.96744936,N,01955.22923671,E,1,20,0.6,229.811,M,41.998,M,,*66

$GPGGA,130454.00,5003.96744702,N,01955.22923774,E,1,20,0.6,229.815,M,41.998,M,,*68

$GPGGA,130455.00,5003.96744687,N,01955.22923254,E,1,20,0.6,229.815,M,41.998,M,,*62

$GPGGA,130456.00,5003.96744578,N,01955.22922944,E,1,20,0.6,229.817,M,41.998,M,,*6B

$GPGGA,130457.00,5003.96744264,N,01955.22923135,E,1,20,0.6,229.813,M,41.998,M,,*6B

$GPGGA,130458.00,5003.96744008,N,01955.22922939,E,1,20,0.6,229.809,M,41.998,M,,*62

$GPGGA,130459.00,5003.96744012,N,01955.22922773,E,1,20,0.6,229.812,M,41.998,M,,*62

$GPGGA,130500.00,5003.96744004,N,01955.22922289,E,1,20,0.6,229.811,M,41.998,M,,*6B

$GPGGA,130501.00,5003.96744232,N,01955.22921905,E,1,20,0.6,229.815,M,41.998,M,,*65

$GPGGA,130502.00,5003.96744222,N,01955.22921532,E,1,20,0.6,229.815,M,41.998,M,,*6F

$GPGGA,130503.00,5003.96744453,N,01955.22921367,E,1,20,0.6,229.816,M,41.998,M,,*6B

$GPGGA,130504.00,5003.96744417,N,01955.22921466,E,1,20,0.6,229.816,M,41.998,M,,*6A

$GPGGA,130505.00,5003.96744190,N,01955.22921246,E,1,20,0.6,229.819,M,41.998,M,,*6A

$GPGGA,130506.00,5003.96744214,N,01955.22921109,E,1,20,0.6,229.810,M,41.998,M,,*67

$GPGGA,130507.00,5003.96744011,N,01955.22920885,E,1,20,0.6,229.802,M,41.998,M,,*6E

$GPGGA,130508.00,5003.96743712,N,01955.22920456,E,1,20,0.6,229.788,M,41.998,M,,*6D

$GPGGA,130509.00,5003.96743607,N,01955.22920605,E,1,20,0.6,229.790,M,41.998,M,,*64

$GPGGA,130510.00,5003.96743540,N,01955.22920145,E,1,20,0.6,229.793,M,41.998,M,,*6C

$GPGGA,130511.00,5003.96743407,N,01955.22920061,E,1,20,0.6,229.792,M,41.998,M,,*69

$GPGGA,130512.00,5003.96743182,N,01955.22919892,E,1,20,0.6,229.785,M,41.998,M,,*6A

$GPGGA,130513.00,5003.96742952,N,01955.22919951,E,1,20,0.6,229.780,M,41.998,M,,*64

$GPGGA,130514.00,5003.96742832,N,01955.22919871,E,1,20,0.6,229.778,M,41.998,M,,*60

$GPGGA,130515.00,5003.96742796,N,01955.22919543,E,1,20,0.6,229.777,M,41.998,M,,*63

$GPGGA,130516.00,5003.96742570,N,01955.22919405,E,1,20,0.6,229.778,M,41.998,M,,*66

$GPGGA,130517.00,5003.96742786,N,01955.22919849,E,1,20,0.6,229.791,M,41.998,M,,*6F

$GPGGA,130518.00,5003.96742455,N,01955.22920225,E,1,20,0.6,229.792,M,41.998,M,,*64

$GPGGA,130519.00,5003.96742367,N,01955.22920499,E,1,20,0.6,229.795,M,41.998,M,,*65

$GPGGA,130520.00,5003.96742248,N,01955.22920681,E,1,20,0.6,229.785,M,41.998,M,,*69

$GPGGA,130521.00,5003.96742341,N,01955.22920779,E,1,20,0.6,229.791,M,41.998,M,,*63

$GPGGA,130522.00,5003.96742114,N,01955.22920686,E,1,20,0.6,229.783,M,41.998,M,,*60

$GPGGA,130523.00,5003.96741805,N,01955.22920673,E,1,20,0.6,229.783,M,41.998,M,,*61

$GPGGA,130524.00,5003.96741714,N,01955.22920840,E,1,20,0.6,229.780,M,41.998,M,,*64

$GPGGA,130525.00,5003.96741721,N,01955.22921271,E,1,20,0.6,229.784,M,41.998,M,,*6E

$GPGGA,130526.00,5003.96741610,N,01955.22921566,E,1,20,0.6,229.783,M,41.998,M,,*68

$GPGGA,130527.00,5003.96741736,N,01955.22921796,E,1,20,0.6,229.792,M,41.998,M,,*61

$GPGGA,130528.00,5003.96741739,N,01955.22922202,E,1,20,0.6,229.792,M,41.998,M,,*6A

$GPGGA,130529.00,5003.96741730,N,01955.22922555,E,1,20,0.6,229.797,M,41.998,M,,*62

$GPGGA,130530.00,5003.96741527,N,01955.22923024,E,1,20,0.6,229.796,M,41.998,M,,*6D

$GPGGA,130531.00,5003.96741701,N,01955.22923016,E,1,20,0.6,229.802,M,41.998,M,,*69

$GPGGA,130532.00,5003.96741662,N,01955.22922939,E,1,20,0.6,229.805,M,41.998,M,,*6C

$GPGGA,130533.00,5003.96741532,N,01955.22923270,E,1,20,0.6,229.806,M,41.998,M,,*6F

$GPGGA,130534.00,5003.96741483,N,01955.22923767,E,1,20,0.6,229.809,M,41.998,M,,*6F

$GPGGA,130535.00,5003.96741661,N,01955.22924077,E,1,20,0.6,229.816,M,41.998,M,,*6F

$GPGGA,130536.00,5003.96741411,N,01955.22924322,E,1,20,0.6,229.813,M,41.998,M,,*6F

$GPGGA,130537.00,5003.96741724,N,01955.22924290,E,1,20,0.6,229.817,M,41.998,M,,*67

$GPGGA,130538.00,5003.96741458,N,01955.22924258,E,1,20,0.6,229.817,M,41.998,M,,*64

$GPGGA,130539.00,5003.96741339,N,01955.22924200,E,1,20,0.6,229.814,M,41.998,M,,*6B

$GPGGA,130540.00,5003.96741021,N,01955.22924363,E,1,20,0.6,229.814,M,41.998,M,,*6B

$GPGGA,130541.00,5003.96740923,N,01955.22924020,E,1,20,0.6,229.818,M,41.998,M,,*68

$GPGGA,130542.00,5003.96740748,N,01955.22924131,E,1,20,0.6,229.820,M,41.998,M,,*62

$GPGGA,130543.00,5003.96740518,N,01955.22923331,E,1,20,0.6,229.815,M,41.998,M,,*67

$GPGGA,130544.00,5003.96740440,N,01955.22922924,E,1,20,0.6,229.812,M,41.998,M,,*64

$GPZDA,130544.016,06,03,2014,00,00*54

$GPGGA,130545.00,5003.96740509,N,01955.22922643,E,1,20,0.6,229.817,M,41.998,M,,*62

$GPGGA,130546.00,5003.96740431,N,01955.22922541,E,1,20,0.6,229.817,M,41.998,M,,*6A

$GPGGA,130547.00,5003.96740548,N,01955.22922268,E,1,20,0.6,229.826,M,41.998,M,,*6A

$GPGGA,130548.00,5003.96740029,N,01955.22922011,E,1,20,0.6,229.814,M,41.998,M,,*6A

$GPGGA,130549.00,5003.96739610,N,01955.22921942,E,1,20,0.6,229.813,M,41.998,M,,*62

$GPGGA,130550.00,5003.96739509,N,01955.22921672,E,1,20,0.6,229.806,M,41.998,M,,*69

$GPGGA,130551.00,5003.96739272,N,01955.22921845,E,1,20,0.6,229.811,M,41.998,M,,*6F

$GPGGA,130552.00,5003.96738903,N,01955.22921919,E,1,20,0.6,229.806,M,41.998,M,,*6E

$GPGGA,130553.00,5003.96738673,N,01955.22922166,E,1,20,0.6,229.805,M,41.998,M,,*67

$GPGGA,130554.00,5003.96738214,N,01955.22922369,E,1,20,0.6,229.791,M,41.998,M,,*6A

$GPGGA,130555.00,5003.96737750,N,01955.22922548,E,1,20,0.6,229.790,M,41.998,M,,*65

$GPGGA,130556.00,5003.96737321,N,01955.22922891,E,1,20,0.6,229.779,M,41.998,M,,*6A

$GPGGA,130557.00,5003.96736997,N,01955.22923036,E,1,20,0.6,229.777,M,41.998,M,,*67

$GPGGA,130558.00,5003.96736784,N,01955.22923525,E,1,20,0.6,229.771,M,41.998,M,,*65

$GPGGA,130559.00,5003.96736519,N,01955.22924004,E,1,20,0.6,229.769,M,41.998,M,,*6A

$GPGGA,130600.00,5003.96736134,N,01955.22924394,E,1,20,0.6,229.764,M,41.998,M,,*69

$GPGGA,130601.00,5003.96735888,N,01955.22924893,E,1,20,0.6,229.760,M,41.998,M,,*6D

$GPGGA,130602.00,5003.96735578,N,01955.22925397,E,1,20,0.6,229.757,M,41.998,M,,*66

$GPGGA,130603.00,5003.96735517,N,01955.22925955,E,1,20,0.6,229.758,M,41.998,M,,*65

$GPGGA,130604.00,5003.96735391,N,01955.22926115,E,1,20,0.6,229.752,M,41.998,M,,*6F

$GPGGA,130605.00,5003.96735271,N,01955.22926500,E,1,20,0.6,229.760,M,41.998,M,,*60

$GPGGA,130606.00,5003.96734957,N,01955.22926513,E,1,21,0.6,229.766,M,41.998,M,,*68

$GPGGA,130607.00,5003.96735043,N,01955.22926520,E,1,20,0.6,229.761,M,41.998,M,,*62

$GPGGA,130608.00,5003.96734689,N,01955.22926557,E,1,20,0.6,229.756,M,41.998,M,,*68

$GPGGA,130609.00,5003.96734636,N,01955.22926680,E,1,20,0.6,229.761,M,41.998,M,,*60

$GPGGA,130610.00,5003.96734273,N,01955.22926975,E,1,20,0.6,229.759,M,41.998,M,,*63

$GPGGA,130611.00,5003.96733896,N,01955.22926766,E,1,20,0.6,229.759,M,41.998,M,,*68

$GPGGA,130612.00,5003.96733768,N,01955.22927029,E,1,20,0.6,229.761,M,41.998,M,,*63

$GPGGA,130613.00,5003.96733593,N,01955.22927144,E,1,20,0.6,229.761,M,41.998,M,,*6E

$GPGGA,130614.00,5003.96733301,N,01955.22927427,E,1,20,0.6,229.753,M,41.998,M,,*65

$GPGGA,130615.00,5003.96733307,N,01955.22927577,E,1,20,0.6,229.754,M,41.998,M,,*61

$GPGGA,130616.00,5003.96733161,N,01955.22927906,E,1,20,0.6,229.755,M,41.998,M,,*6B

$GPGGA,130617.00,5003.96733266,N,01955.22928166,E,1,20,0.6,229.760,M,41.998,M,,*69

$GPGGA,130618.00,5003.96733087,N,01955.22928396,E,1,20,0.6,229.753,M,41.998,M,,*66

$GPGGA,130619.00,5003.96733232,N,01955.22928574,E,1,20,0.6,229.756,M,41.998,M,,*64

$GPGGA,130620.00,5003.96733321,N,01955.22928521,E,1,20,0.6,229.752,M,41.998,M,,*69

$GPGGA,130621.00,5003.96733140,N,01955.22928573,E,1,20,0.6,229.754,M,41.998,M,,*6C

$GPGGA,130622.00,5003.96732938,N,01955.22928812,E,1,20,0.6,229.752,M,41.998,M,,*65

$GPGGA,130623.00,5003.96733222,N,01955.22928954,E,1,20,0.6,229.752,M,41.998,M,,*66

$GPGGA,130624.00,5003.96732930,N,01955.22929027,E,1,20,0.6,229.755,M,41.998,M,,*63

$GPGGA,130625.00,5003.96732828,N,01955.22929204,E,1,20,0.6,229.751,M,41.998,M,,*6D

$GPGGA,130626.00,5003.96732826,N,01955.22929703,E,1,20,0.6,229.753,M,41.998,M,,*60

$GPGGA,130627.00,5003.96732830,N,01955.22930312,E,1,20,0.6,229.758,M,41.998,M,,*61

$GPGGA,130628.00,5003.96732807,N,01955.22930314,E,1,20,0.6,229.755,M,41.998,M,,*61

$GPGGA,130629.00,5003.96732969,N,01955.22930425,E,1,20,0.6,229.757,M,41.998,M,,*6E

$GPGGA,130630.00,5003.96732971,N,01955.22930506,E,1,20,0.6,229.761,M,41.998,M,,*6A

$GPGGA,130631.00,5003.96733063,N,01955.22930018,E,1,20,0.6,229.762,M,41.998,M,,*69

$GPGGA,130632.00,5003.96733189,N,01955.22930117,E,1,20,0.6,229.765,M,41.998,M,,*66

$GPGGA,130633.00,5003.96733174,N,01955.22930222,E,1,20,0.6,229.765,M,41.998,M,,*60

$GPGGA,130634.00,5003.96732981,N,01955.22930243,E,1,20,0.6,229.759,M,41.998,M,,*6C

$GPGGA,130635.00,5003.96732952,N,01955.22930043,E,1,20,0.6,229.755,M,41.998,M,,*6D

$GPGGA,130636.00,5003.96732903,N,01955.22929693,E,1,20,0.6,229.752,M,41.998,M,,*6E

$GPGGA,130637.00,5003.96732964,N,01955.22929683,E,1,20,0.6,229.753,M,41.998,M,,*6E

$GPGGA,130638.00,5003.96732862,N,01955.22929490,E,1,20,0.6,229.753,M,41.998,M,,*66

$GPGGA,130639.00,5003.96733051,N,01955.22929450,E,1,20,0.6,229.757,M,41.998,M,,*66

$GPGGA,130640.00,5003.96733152,N,01955.22929074,E,1,20,0.6,229.755,M,41.998,M,,*6A

$GPGGA,130641.00,5003.96733664,N,01955.22928717,E,1,20,0.6,229.757,M,41.998,M,,*68

$GPGGA,130642.00,5003.96733805,N,01955.22928799,E,1,20,0.6,229.751,M,41.998,M,,*62

$GPGGA,130643.00,5003.96734184,N,01955.22928662,E,1,20,0.6,229.750,M,41.998,M,,*60

$GPGGA,130644.00,5003.96734406,N,01955.22928646,E,1,20,0.6,229.753,M,41.998,M,,*6D

$GPZDA,130644.015,06,03,2014,00,00*54

$GPGGA,130645.00,5003.96734642,N,01955.22928508,E,1,20,0.6,229.758,M,41.998,M,,*6C

$GPGGA,130646.00,5003.96734870,N,01955.22928666,E,1,20,0.6,229.766,M,41.998,M,,*66

$GPGGA,130647.00,5003.96735244,N,01955.22928697,E,1,20,0.6,229.772,M,41.998,M,,*60

$GPGGA,130648.00,5003.96735539,N,01955.22928738,E,1,20,0.6,229.774,M,41.998,M,,*60

$GPGGA,130649.00,5003.96735568,N,01955.22929124,E,1,20,0.6,229.774,M,41.998,M,,*6F

$GPGGA,130650.00,5003.96735604,N,01955.22928931,E,1,20,0.6,229.775,M,41.998,M,,*62

$GPGGA,130651.00,5003.96735798,N,01955.22928565,E,1,20,0.6,229.778,M,41.998,M,,*67

$GPGGA,130652.00,5003.96735965,N,01955.22928350,E,1,20,0.6,229.778,M,41.998,M,,*68

$GPGGA,130653.00,5003.96736097,N,01955.22928103,E,1,20,0.6,229.784,M,41.998,M,,*69

$GPGGA,130654.00,5003.96735907,N,01955.22927866,E,1,20,0.6,229.780,M,41.998,M,,*6C

$GPGGA,130655.00,5003.96735932,N,01955.22927720,E,1,20,0.6,229.777,M,41.998,M,,*6E

$GPGGA,130656.00,5003.96735682,N,01955.22927504,E,1,20,0.6,229.775,M,41.998,M,,*6F

$GPGGA,130657.00,5003.96735743,N,01955.22927426,E,1,20,0.6,229.779,M,41.998,M,,*6F

$GPGGA,130658.00,5003.96735650,N,01955.22927361,E,1,20,0.6,229.777,M,41.998,M,,*69

$GPGGA,130659.00,5003.96735585,N,01955.22927407,E,1,20,0.6,229.779,M,41.998,M,,*6A

$GPGGA,130700.00,5003.96735762,N,01955.22927495,E,1,20,0.6,229.777,M,41.998,M,,*69

$GPGGA,130701.00,5003.96735951,N,01955.22927528,E,1,20,0.6,229.783,M,41.998,M,,*6A

$GPGGA,130702.00,5003.96736083,N,01955.22927857,E,1,20,0.6,229.788,M,41.998,M,,*62

$GPGGA,130703.00,5003.96736026,N,01955.22928348,E,1,20,0.6,229.791,M,41.998,M,,*6E

$GPGGA,130704.00,5003.96735888,N,01955.22928685,E,1,20,0.6,229.792,M,41.998,M,,*61

$GPGGA,130705.00,5003.96735790,N,01955.22928937,E,1,20,0.6,229.798,M,41.998,M,,*6A

$GPGGA,130706.00,5003.96735520,N,01955.22928851,E,1,20,0.6,229.784,M,41.998,M,,*6C

$GPGGA,130707.00,5003.96735489,N,01955.22928690,E,1,20,0.6,229.784,M,41.998,M,,*6C

$GPGGA,130708.00,5003.96735228,N,01955.22928511,E,1,20,0.6,229.782,M,41.998,M,,*62

$GPGGA,130709.00,5003.96735080,N,01955.22928431,E,1,20,0.6,229.786,M,41.998,M,,*64

$GPGGA,130710.00,5003.96734813,N,01955.22928226,E,1,20,0.6,229.785,M,41.998,M,,*6C

$GPGGA,130711.00,5003.96734849,N,01955.22928231,E,1,20,0.6,229.785,M,41.998,M,,*64

$GPGGA,130712.00,5003.96734901,N,01955.22928353,E,1,20,0.6,229.780,M,41.998,M,,*6A

$GPGGA,130713.00,5003.96734990,N,01955.22928185,E,1,20,0.6,229.785,M,41.998,M,,*6F

$GPGGA,130714.00,5003.96735082,N,01955.22928719,E,1,20,0.6,229.786,M,41.998,M,,*63

$GPGGA,130715.00,5003.96735464,N,01955.22928690,E,1,20,0.6,229.790,M,41.998,M,,*69

$GPGGA,130716.00,5003.96735570,N,01955.22928615,E,1,20,0.6,229.789,M,41.998,M,,*6B

$GPGGA,130717.00,5003.96735611,N,01955.22928944,E,1,20,0.6,229.790,M,41.998,M,,*6D

$GPGGA,130718.00,5003.96735720,N,01955.22929282,E,1,20,0.6,229.792,M,41.998,M,,*63

$GPGGA,130719.00,5003.96735783,N,01955.22929349,E,1,20,0.6,229.795,M,41.998,M,,*6A

$GPGGA,130720.00,5003.96735682,N,01955.22929527,E,1,20,0.6,229.791,M,41.998,M,,*6A

$GPGGA,130721.00,5003.96735856,N,01955.22930096,E,1,20,0.6,229.797,M,41.998,M,,*6D

$GPGGA,130722.00,5003.96735946,N,01955.22930244,E,1,20,0.6,229.802,M,41.998,M,,*60

$GPGGA,130723.00,5003.96736291,N,01955.22930407,E,1,20,0.6,229.813,M,41.998,M,,*62

$GPGGA,130724.00,5003.96736278,N,01955.22930570,E,1,20,0.6,229.813,M,41.998,M,,*63

$GPGGA,130725.00,5003.96736364,N,01955.22930598,E,1,20,0.6,229.815,M,41.998,M,,*6E

$GPGGA,130726.00,5003.96736399,N,01955.22930965,E,1,20,0.6,229.811,M,41.998,M,,*65

$GPGGA,130727.00,5003.96736610,N,01955.22931179,E,1,20,0.6,229.814,M,41.998,M,,*61

$GPGGA,130728.00,5003.96736314,N,01955.22931690,E,1,20,0.6,229.818,M,41.998,M,,*63

$GPGGA,130729.00,5003.96736496,N,01955.22931894,E,1,20,0.6,229.826,M,41.998,M,,*68

$GPGGA,130730.00,5003.96736333,N,01955.22932118,E,1,20,0.6,229.830,M,41.998,M,,*61

$GPGGA,130731.00,5003.96736495,N,01955.22932170,E,1,20,0.6,229.828,M,41.998,M,,*6C

$GPGGA,130732.00,5003.96736538,N,01955.22932656,E,1,20,0.6,229.829,M,41.998,M,,*6B

$GPGGA,130733.00,5003.96736637,N,01955.22932786,E,1,20,0.6,229.833,M,41.998,M,,*61

$GPGGA,130734.00,5003.96736483,N,01955.22932813,E,1,20,0.6,229.828,M,41.998,M,,*62

$GPGGA,130735.00,5003.96736467,N,01955.22932893,E,1,20,0.6,229.835,M,41.998,M,,*6D

$GPGGA,130736.00,5003.96736448,N,01955.22932878,E,1,20,0.6,229.832,M,41.998,M,,*61

$GPGGA,130737.00,5003.96736393,N,01955.22933206,E,1,20,0.6,229.832,M,41.998,M,,*63

$GPGGA,130738.00,5003.96736419,N,01955.22933249,E,1,20,0.6,229.835,M,41.998,M,,*65

$GPGGA,130739.00,5003.96736441,N,01955.22933816,E,1,20,0.6,229.846,M,41.998,M,,*6D

$GPGGA,130740.00,5003.96736247,N,01955.22934051,E,1,20,0.6,229.843,M,41.998,M,,*6A

$GPGGA,130741.00,5003.96736147,N,01955.22933965,E,1,20,0.6,229.840,M,41.998,M,,*62

$GPGGA,130742.00,5003.96736104,N,01955.22933752,E,1,20,0.6,229.836,M,41.998,M,,*6D

$GPGGA,130743.00,5003.96736195,N,01955.22933740,E,1,20,0.6,229.838,M,41.998,M,,*69

$GPGGA,130744.00,5003.96736055,N,01955.22933687,E,1,20,0.6,229.832,M,41.998,M,,*63

$GPZDA,130744.015,06,03,2014,00,00*55

$GPGGA,130745.00,5003.96735967,N,01955.22933693,E,1,20,0.6,229.837,M,41.998,M,,*69

$GPGGA,130746.00,5003.96735717,N,01955.22933576,E,1,20,0.6,229.831,M,41.998,M,,*6D

$GPGGA,130747.00,5003.96735499,N,01955.22933317,E,1,20,0.6,229.826,M,41.998,M,,*6E

$GPGGA,130748.00,5003.96735369,N,01955.22933194,E,1,20,0.6,229.817,M,41.998,M,,*62

$GPGGA,130749.00,5003.96735523,N,01955.22933308,E,1,20,0.6,229.819,M,41.998,M,,*62

$GPGGA,130750.00,5003.96735674,N,01955.22933491,E,1,20,0.6,229.826,M,41.998,M,,*60

$GPGGA,130751.00,5003.96735886,N,01955.22934050,E,1,20,0.6,229.833,M,41.998,M,,*68

$GPGGA,130752.00,5003.96735926,N,01955.22933779,E,1,20,0.6,229.836,M,41.998,M,,*6E

$GPGGA,130753.00,5003.96736066,N,01955.22934210,E,1,20,0.6,229.840,M,41.998,M,,*6D

$GPGGA,130754.00,5003.96735851,N,01955.22934287,E,1,20,0.6,229.836,M,41.998,M,,*6A

$GPGGA,130755.00,5003.96735830,N,01955.22933955,E,1,20,0.6,229.837,M,41.998,M,,*6E

$GPGGA,130756.00,5003.96735579,N,01955.22934008,E,1,20,0.6,229.835,M,41.998,M,,*69

$GPGGA,130757.00,5003.96729332,N,01955.22939546,E,1,21,0.6,230.071,M,41.998,M,,*6F

$GPGGA,130758.00,5003.96729489,N,01955.22939463,E,1,21,0.6,230.061,M,41.998,M,,*60

$GPGGA,130759.00,5003.96729608,N,01955.22939507,E,1,21,0.6,230.064,M,41.998,M,,*6C

$GPGGA,130800.00,5003.96729467,N,01955.22939308,E,1,21,0.6,230.072,M,41.998,M,,*6A

$GPGGA,130801.00,5003.96729259,N,01955.22938961,E,1,21,0.6,230.086,M,41.998,M,,*6F

$GPGGA,130802.00,5003.96729248,N,01955.22939199,E,1,21,0.6,230.078,M,41.998,M,,*63

$GPGGA,130803.00,5003.96729131,N,01955.22939433,E,1,21,0.6,230.084,M,41.998,M,,*69

$GPGGA,130804.00,5003.96729081,N,01955.22939304,E,1,21,0.6,230.083,M,41.998,M,,*60

$GPGGA,130805.00,5003.96729132,N,01955.22939074,E,1,21,0.6,230.084,M,41.998,M,,*6B

$GPGGA,130806.00,5003.96729019,N,01955.22938937,E,1,21,0.6,230.080,M,41.998,M,,*6B

$GPGGA,130807.00,5003.96728869,N,01955.22939002,E,1,21,0.6,230.081,M,41.998,M,,*6B

$GPGGA,130808.00,5003.96728834,N,01955.22938367,E,1,21,0.6,230.054,M,41.998,M,,*65

$GPGGA,130809.00,5003.96728785,N,01955.22938266,E,1,21,0.6,230.050,M,41.998,M,,*65

$GPGGA,130810.00,5003.96728631,N,01955.22938294,E,1,21,0.6,230.048,M,41.998,M,,*67

$GPGGA,130811.00,5003.96728354,N,01955.22938245,E,1,21,0.6,230.053,M,41.998,M,,*66

$GPGGA,130812.00,5003.96728195,N,01955.22938435,E,1,21,0.6,230.053,M,41.998,M,,*6B

$GPGGA,130813.00,5003.96728186,N,01955.22938294,E,1,21,0.6,230.055,M,41.998,M,,*63

$GPGGA,130814.00,5003.96728056,N,01955.22938222,E,1,21,0.6,230.060,M,41.998,M,,*63

$GPGGA,130815.00,5003.96727857,N,01955.22937943,E,1,21,0.6,230.057,M,41.998,M,,*63

$GPGGA,130816.00,5003.96728134,N,01955.22937404,E,1,21,0.6,230.053,M,41.998,M,,*69

$GPGGA,130817.00,5003.96728157,N,01955.22937450,E,1,21,0.6,230.065,M,41.998,M,,*69

$GPGGA,130818.00,5003.96727810,N,01955.22937874,E,1,21,0.6,230.074,M,41.998,M,,*69

$GPGGA,130819.00,5003.96727887,N,01955.22937842,E,1,21,0.6,230.080,M,41.998,M,,*68

$GPGGA,130820.00,5003.96727924,N,01955.22937939,E,1,21,0.6,230.073,M,41.998,M,,*6B

$GPGGA,130821.00,5003.96727755,N,01955.22937987,E,1,21,0.6,230.088,M,41.998,M,,*63

$GPGGA,130822.00,5003.96727631,N,01955.22937663,E,1,21,0.6,230.094,M,41.998,M,,*6B

$GPGGA,130823.00,5003.96727462,N,01955.22937392,E,1,21,0.6,230.098,M,41.998,M,,*69

$GPGGA,130824.00,5003.96727212,N,01955.22937031,E,1,21,0.6,230.095,M,41.998,M,,*68

$GPGGA,130825.00,5003.96726921,N,01955.22936817,E,1,21,0.6,230.104,M,41.998,M,,*67

$GPGGA,130826.00,5003.96726669,N,01955.22936746,E,1,21,0.6,230.106,M,41.998,M,,*6E

$GPGGA,130827.00,5003.96726770,N,01955.22936426,E,1,21,0.6,230.110,M,41.998,M,,*64

$GPGGA,130828.00,5003.96726516,N,01955.22936480,E,1,21,0.6,230.111,M,41.998,M,,*64

$GPGGA,130829.00,5003.96726586,N,01955.22936169,E,1,21,0.6,230.114,M,41.998,M,,*6B

$GPGGA,130830.00,5003.96726247,N,01955.22936484,E,1,21,0.6,230.127,M,41.998,M,,*6F

$GPGGA,130831.00,5003.96726462,N,01955.22936209,E,1,21,0.6,230.120,M,41.998,M,,*6B

$GPGGA,130832.00,5003.96726334,N,01955.22936556,E,1,21,0.6,230.132,M,41.998,M,,*62

$GPGGA,130833.00,5003.96726565,N,01955.22936937,E,1,21,0.6,230.142,M,41.998,M,,*6D

$GPGGA,130834.00,5003.96726392,N,01955.22936385,E,1,21,0.6,230.125,M,41.998,M,,*66

$GPGGA,130835.00,5003.96726595,N,01955.22936641,E,1,21,0.6,230.135,M,41.998,M,,*6A

$GPGGA,130836.00,5003.96726664,N,01955.22935945,E,1,21,0.6,230.127,M,41.998,M,,*6F

$GPGGA,130837.00,5003.96726841,N,01955.22935985,E,1,21,0.6,230.134,M,41.998,M,,*69

$GPGGA,130838.00,5003.96726809,N,01955.22936333,E,1,21,0.6,230.145,M,41.998,M,,*68

$GPGGA,130839.00,5003.96726832,N,01955.22936550,E,1,21,0.6,230.144,M,41.998,M,,*63

$GPGGA,130840.00,5003.96726742,N,01955.22936743,E,1,21,0.6,230.150,M,41.998,M,,*60

$GPGGA,130841.00,5003.96726834,N,01955.22937019,E,1,21,0.6,230.153,M,41.998,M,,*65

$GPGGA,130842.00,5003.96727240,N,01955.22937189,E,1,21,0.6,230.158,M,41.998,M,,*6D

$GPGGA,130843.00,5003.96727157,N,01955.22936335,E,1,21,0.6,230.159,M,41.998,M,,*6C

$GPGGA,130844.00,5003.96726662,N,01955.22936187,E,1,21,0.6,230.172,M,41.998,M,,*69

$GPZDA,130844.016,06,03,2014,00,00*59

$GPGGA,130845.00,5003.96726844,N,01955.22935920,E,1,21,0.6,230.179,M,41.998,M,,*6F

$GPGGA,130846.00,5003.96733180,N,01955.22929907,E,1,20,0.6,229.930,M,41.998,M,,*6D

$GPGGA,130847.00,5003.96732923,N,01955.22930078,E,1,20,0.6,229.931,M,41.998,M,,*64

$GPGGA,130848.00,5003.96732773,N,01955.22930076,E,1,20,0.6,229.924,M,41.998,M,,*6A

$GPGGA,130849.00,5003.96727697,N,01955.22934375,E,1,21,0.6,230.120,M,41.998,M,,*65

$GPGGA,130850.00,5003.96727209,N,01955.22934667,E,1,21,0.6,230.133,M,41.998,M,,*6A

$GPGGA,130851.00,5003.96726841,N,01955.22935218,E,1,21,0.6,230.150,M,41.998,M,,*64

$GPGGA,130852.00,5003.96732285,N,01955.22929509,E,1,20,0.6,229.908,M,41.998,M,,*66

$GPGGA,130853.00,5003.96732071,N,01955.22929111,E,1,20,0.6,229.904,M,41.998,M,,*6F

$GPGGA,130854.00,5003.96731933,N,01955.22929096,E,1,20,0.6,229.892,M,41.998,M,,*64

$GPGGA,130855.00,5003.96731919,N,01955.22928682,E,1,20,0.6,229.884,M,41.998,M,,*68

$GPGGA,130856.00,5003.96731423,N,01955.22928108,E,1,20,0.6,229.860,M,41.998,M,,*60

$GPGGA,130857.00,5003.96730830,N,01955.22927810,E,1,20,0.6,229.842,M,41.998,M,,*61

$GPGGA,130858.00,5003.96730508,N,01955.22927886,E,1,20,0.6,229.835,M,41.998,M,,*67

$GPGGA,130859.00,5003.96730290,N,01955.22927980,E,1,20,0.6,229.825,M,41.998,M,,*66

$GPGGA,130900.00,5003.96729941,N,01955.22928007,E,1,20,0.6,229.816,M,41.998,M,,*6D

$GPGGA,130901.00,5003.96729510,N,01955.22927805,E,1,20,0.6,229.807,M,41.998,M,,*61

$GPGGA,130902.00,5003.96729286,N,01955.22927588,E,1,20,0.6,229.799,M,41.998,M,,*6A

$GPGGA,130903.00,5003.96729329,N,01955.22927507,E,1,20,0.6,229.782,M,41.998,M,,*62

$GPGGA,130904.00,5003.96729324,N,01955.22927261,E,1,20,0.6,229.772,M,41.998,M,,*60

$GPGGA,130905.00,5003.96729347,N,01955.22927464,E,1,20,0.6,229.771,M,41.998,M,,*64

$GPGGA,130906.00,5003.96729635,N,01955.22927533,E,1,20,0.6,229.774,M,41.998,M,,*61

$GPGGA,130907.00,5003.96729998,N,01955.22928060,E,1,20,0.6,229.782,M,41.998,M,,*6D

$GPGGA,130908.00,5003.96730367,N,01955.22928179,E,1,20,0.6,229.785,M,41.998,M,,*6E

$GPGGA,130909.00,5003.96730439,N,01955.22928291,E,1,20,0.6,229.788,M,41.998,M,,*6B

$GPGGA,130910.00,5003.96722104,N,01955.22936964,E,1,21,0.6,230.143,M,41.998,M,,*6D

$GPGGA,130911.00,5003.96721903,N,01955.22936880,E,1,21,0.6,230.134,M,41.998,M,,*6B

$GPGGA,130912.00,5003.96721278,N,01955.22937463,E,1,21,0.6,230.155,M,41.998,M,,*68

$GPGGA,130913.00,5003.96721258,N,01955.22938034,E,1,21,0.6,230.170,M,41.998,M,,*65

$GPGGA,130914.00,5003.96721313,N,01955.22938390,E,1,21,0.6,230.182,M,41.998,M,,*6C

$GPGGA,130915.00,5003.96721697,N,01955.22938267,E,1,21,0.6,230.177,M,41.998,M,,*67

$GPGGA,130916.00,5003.96722032,N,01955.22938728,E,1,21,0.6,230.176,M,41.998,M,,*61

$GPGGA,130917.00,5003.96722352,N,01955.22938757,E,1,21,0.6,230.171,M,41.998,M,,*6A

$GPGGA,130918.00,5003.96722631,N,01955.22938699,E,1,21,0.6,230.160,M,41.998,M,,*66

$GPGGA,130919.00,5003.96723198,N,01955.22938819,E,1,21,0.6,230.153,M,41.998,M,,*64

$GPGGA,130920.00,5003.96723719,N,01955.22939039,E,1,21,0.6,230.140,M,41.998,M,,*68

$GPGGA,130921.00,5003.96723961,N,01955.22939401,E,1,21,0.6,230.146,M,41.998,M,,*61

$GPGGA,130922.00,5003.96723940,N,01955.22940270,E,1,21,0.6,230.158,M,41.998,M,,*60

$GPGGA,130923.00,5003.96724056,N,01955.22940252,E,1,21,0.6,230.149,M,41.998,M,,*68

$GPGGA,130924.00,5003.96724302,N,01955.22940097,E,1,21,0.6,230.152,M,41.998,M,,*6C

$GPGGA,130925.00,5003.96724670,N,01955.22939804,E,1,21,0.6,230.146,M,41.998,M,,*64

$GPGGA,130926.00,5003.96724944,N,01955.22939743,E,1,21,0.6,230.150,M,41.998,M,,*64

$GPGGA,130927.00,5003.96725460,N,01955.22939340,E,1,21,0.6,230.129,M,41.998,M,,*66

$GPGGA,130928.00,5003.96725903,N,01955.22939109,E,1,21,0.6,230.112,M,41.998,M,,*66

$GPGGA,130929.00,5003.96725967,N,01955.22939679,E,1,21,0.6,230.118,M,41.998,M,,*6F

$GPGGA,130930.00,5003.96726164,N,01955.22939915,E,1,21,0.6,230.117,M,41.998,M,,*65

$GPGGA,130931.00,5003.96726648,N,01955.22939549,E,1,21,0.6,230.107,M,41.998,M,,*69

$GPGGA,130932.00,5003.96726783,N,01955.22939854,E,1,21,0.6,230.112,M,41.998,M,,*69

$GPGGA,130933.00,5003.96727226,N,01955.22940006,E,1,21,0.6,230.107,M,41.998,M,,*66

$GPGGA,130934.00,5003.96727356,N,01955.22940354,E,1,21,0.6,230.109,M,41.998,M,,*6D

$GPGGA,130935.00,5003.96726972,N,01955.22940762,E,1,21,0.6,230.118,M,41.998,M,,*60

$GPGGA,130936.00,5003.96727021,N,01955.22940904,E,1,21,0.6,230.122,M,41.998,M,,*6A

$GPGGA,130937.00,5003.96727241,N,01955.22940710,E,1,21,0.6,230.108,M,41.998,M,,*6C

$GPGGA,130938.00,5003.96727149,N,01955.22940760,E,1,21,0.6,230.111,M,41.998,M,,*67

$GPGGA,130939.00,5003.96727001,N,01955.22940737,E,1,21,0.6,230.105,M,41.998,M,,*6C

$GPGGA,130940.00,5003.96726628,N,01955.22941355,E,1,21,0.6,230.106,M,41.998,M,,*6C

$GPGGA,130941.00,5003.96726912,N,01955.22941160,E,1,21,0.6,230.099,M,41.998,M,,*68

$GPGGA,130942.00,5003.96726707,N,01955.22941674,E,1,21,0.6,230.102,M,41.998,M,,*60

$GPGGA,130943.00,5003.96726634,N,01955.22942083,E,1,21,0.6,230.112,M,41.998,M,,*6C

$GPGGA,130944.00,5003.96726649,N,01955.22942750,E,1,21,0.6,230.121,M,41.998,M,,*68

$GPZDA,130944.016,06,03,2014,00,00*58

$GPGGA,130945.00,5003.96726365,N,01955.22943076,E,1,21,0.6,230.121,M,41.998,M,,*60

$GPGGA,130946.00,5003.96726319,N,01955.22942889,E,1,21,0.6,230.113,M,41.998,M,,*60

$GPGGA,130947.00,5003.96726195,N,01955.22943206,E,1,21,0.6,230.128,M,41.998,M,,*63

$GPGGA,130948.00,5003.96726083,N,01955.22942860,E,1,21,0.6,230.134,M,41.998,M,,*6C

$GPGGA,130949.00,5003.96725647,N,01955.22943007,E,1,21,0.6,230.141,M,41.998,M,,*6A

$GPGGA,130950.00,5003.96725755,N,01955.22942875,E,1,21,0.6,230.133,M,41.998,M,,*69

$GPGGA,130951.00,5003.96725844,N,01955.22942462,E,1,21,0.6,230.125,M,41.998,M,,*6A

$GPGGA,130952.00,5003.96725391,N,01955.22942170,E,1,21,0.6,230.135,M,41.998,M,,*6D

$GPGGA,130953.00,5003.96725248,N,01955.22942419,E,1,21,0.6,230.154,M,41.998,M,,*64

$GPGGA,130954.00,5003.96725529,N,01955.22942329,E,1,21,0.6,230.157,M,41.998,M,,*64

$GPGGA,130955.00,5003.96725570,N,01955.22942304,E,1,21,0.6,230.159,M,41.998,M,,*68

$GPGGA,130956.00,5003.96726056,N,01955.22941873,E,1,21,0.6,230.147,M,41.998,M,,*6E

$GPGGA,130957.00,5003.96725966,N,01955.22942384,E,1,21,0.6,230.151,M,41.998,M,,*61

$GPGGA,130958.00,5003.96726383,N,01955.22942527,E,1,21,0.6,230.158,M,41.998,M,,*6A

$GPGGA,130959.00,5003.96726534,N,01955.22942922,E,1,21,0.6,230.166,M,41.998,M,,*65

$GPGGA,131000.00,5003.96726595,N,01955.22942980,E,1,21,0.6,230.165,M,41.998,M,,*61

$GPGGA,131001.00,5003.96726507,N,01955.22943217,E,1,21,0.6,230.169,M,41.998,M,,*63

$GPGGA,131002.00,5003.96726954,N,01955.22942656,E,1,21,0.6,230.163,M,41.998,M,,*60

$GPGGA,131003.00,5003.96727116,N,01955.22942910,E,1,21,0.6,230.176,M,41.998,M,,*67

$GPGGA,131004.00,5003.96726947,N,01955.22943142,E,1,21,0.6,230.190,M,41.998,M,,*6B

$GPGGA,131005.00,5003.96727416,N,01955.22942508,E,1,21,0.6,230.183,M,41.998,M,,*6B

$GPGGA,131006.00,5003.96727363,N,01955.22942429,E,1,21,0.6,230.184,M,41.998,M,,*68

$GPGGA,131007.00,5003.96727419,N,01955.22942260,E,1,21,0.6,230.179,M,41.998,M,,*6A

$GPGGA,131008.00,5003.96727545,N,01955.22942368,E,1,21,0.6,230.184,M,41.998,M,,*66

$GPGGA,131009.00,5003.96727445,N,01955.22942328,E,1,21,0.6,230.185,M,41.998,M,,*63

$GPGGA,131010.00,5003.96727350,N,01955.22942472,E,1,21,0.6,230.196,M,41.998,M,,*62

$GPGGA,131011.00,5003.96727140,N,01955.22942442,E,1,21,0.6,230.192,M,41.998,M,,*67

$GPGGA,131012.00,5003.96726973,N,01955.22942230,E,1,21,0.6,230.177,M,41.998,M,,*65

$GPGGA,131013.00,5003.96726539,N,01955.22942059,E,1,21,0.6,230.175,M,41.998,M,,*69

$GPGGA,131014.00,5003.96726592,N,01955.22942677,E,1,21,0.6,230.185,M,41.998,M,,*6A

$GPGGA,131015.00,5003.96726316,N,01955.22942862,E,1,21,0.6,230.188,M,41.998,M,,*66

$GPGGA,131016.00,5003.96726163,N,01955.22943078,E,1,21,0.6,230.184,M,41.998,M,,*6B

$GPGGA,131017.00,5003.96725788,N,01955.22943356,E,1,21,0.6,230.182,M,41.998,M,,*63

$GPGGA,131018.00,5003.96725284,N,01955.22944067,E,1,21,0.6,230.188,M,41.998,M,,*69

$GPGGA,131019.00,5003.96725355,N,01955.22943991,E,1,21,0.6,230.187,M,41.998,M,,*6D

$GPGGA,131020.00,5003.96725013,N,01955.22944213,E,1,21,0.6,230.174,M,41.998,M,,*6C

$GPGGA,131021.00,5003.96724932,N,01955.22944456,E,1,21,0.6,230.175,M,41.998,M,,*60

$GPGGA,131022.00,5003.96725054,N,01955.22945077,E,1,21,0.6,230.203,M,41.998,M,,*6F

$GPGGA,131023.00,5003.96725008,N,01955.22944838,E,1,21,0.6,230.204,M,41.998,M,,*62

$GPGGA,131024.00,5003.96725090,N,01955.22945248,E,1,21,0.6,230.203,M,41.998,M,,*6F

$GPGGA,131025.00,5003.96724734,N,01955.22945747,E,1,21,0.6,230.210,M,41.998,M,,*6E

$GPGGA,131026.00,5003.96725453,N,01955.22945365,E,1,21,0.6,230.189,M,41.998,M,,*69

$GPGGA,131027.00,5003.96725191,N,01955.22945694,E,1,21,0.6,230.197,M,41.998,M,,*67

$GPGGA,131028.00,5003.96725063,N,01955.22945791,E,1,21,0.6,230.199,M,41.998,M,,*6E

$GPGGA,131029.00,5003.96725327,N,01955.22945933,E,1,21,0.6,230.194,M,41.998,M,,*67

$GPGGA,131030.00,5003.96725403,N,01955.22946259,E,1,21,0.6,230.196,M,41.998,M,,*68

$GPGGA,131031.00,5003.96725581,N,01955.22946652,E,1,21,0.6,230.202,M,41.998,M,,*63

$GPGGA,131032.00,5003.96725270,N,01955.22947284,E,1,21,0.6,230.215,M,41.998,M,,*61

$GPGGA,131033.00,5003.96725097,N,01955.22948172,E,1,21,0.6,230.235,M,41.998,M,,*6C

$GPGGA,131034.00,5003.96724786,N,01955.22948664,E,1,21,0.6,230.248,M,41.998,M,,*67

$GPGGA,131035.00,5003.96724474,N,01955.22948928,E,1,21,0.6,230.249,M,41.998,M,,*6E

$GPGGA,131036.00,5003.96724641,N,01955.22948285,E,1,21,0.6,230.231,M,41.998,M,,*6A

$GPGGA,131037.00,5003.96724388,N,01955.22948802,E,1,21,0.6,230.231,M,41.998,M,,*6E

$GPGGA,131038.00,5003.96724505,N,01955.22948904,E,1,21,0.6,230.235,M,41.998,M,,*61

$GPGGA,131039.00,5003.96724125,N,01955.22949536,E,1,21,0.6,230.240,M,41.998,M,,*68

$GPGGA,131040.00,5003.96723878,N,01955.22949672,E,1,21,0.6,230.256,M,41.998,M,,*64

$GPGGA,131041.00,5003.96723780,N,01955.22949216,E,1,21,0.6,230.235,M,41.998,M,,*6E

$GPGGA,131042.00,5003.96723634,N,01955.22948729,E,1,21,0.6,230.226,M,41.998,M,,*69

$GPGGA,131043.00,5003.96723710,N,01955.22947978,E,1,21,0.6,230.202,M,41.998,M,,*6C

$GPGGA,131044.00,5003.96722102,N,01955.22943412,E,1,21,0.6,230.100,M,41.998,M,,*6B

$GPZDA,131044.016,06,03,2014,00,00*50

$GPGGA,131045.00,5003.96721559,N,01955.22943290,E,1,21,0.6,230.111,M,41.998,M,,*6F

$GPGGA,131046.00,5003.96721901,N,01955.22943833,E,1,21,0.6,230.131,M,41.998,M,,*6C

$GPGGA,131047.00,5003.96721441,N,01955.22943184,E,1,21,0.6,230.111,M,41.998,M,,*63

$GPGGA,131048.00,5003.96721658,N,01955.22943073,E,1,21,0.6,230.107,M,41.998,M,,*68

$GPGGA,131049.00,5003.96721270,N,01955.22942297,E,1,21,0.6,230.083,M,41.998,M,,*63

$GPGGA,131050.00,5003.96720862,N,01955.22942317,E,1,21,0.6,230.092,M,41.998,M,,*6A

$GPGGA,131051.00,5003.96720373,N,01955.22941833,E,1,21,0.6,230.066,M,41.998,M,,*65

$GPGGA,131052.00,5003.96720209,N,01955.22941840,E,1,21,0.6,230.078,M,41.998,M,,*61

$GPGGA,131053.00,5003.96719506,N,01955.22941112,E,1,21,0.6,230.058,M,41.998,M,,*6E

$GPGGA,131054.00,5003.96719367,N,01955.22940320,E,1,21,0.6,230.041,M,41.998,M,,*62

$GPGGA,131055.00,5003.96719131,N,01955.22940100,E,1,21,0.6,230.053,M,41.998,M,,*61

$GPGGA,131056.00,5003.96719052,N,01955.22939968,E,1,21,0.6,230.053,M,41.998,M,,*6E

$GPGGA,131057.00,5003.96718906,N,01955.22939655,E,1,21,0.6,230.050,M,41.998,M,,*64

$GPGGA,131058.00,5003.96718802,N,01955.22939354,E,1,21,0.6,230.053,M,41.998,M,,*69

$GPGGA,131059.00,5003.96718317,N,01955.22937807,E,1,21,0.6,230.019,M,41.998,M,,*6A

$GPGGA,131100.00,5003.96718745,N,01955.22938247,E,1,21,0.6,230.038,M,41.998,M,,*66

$GPGGA,131101.00,5003.96718573,N,01955.22938493,E,1,21,0.6,230.050,M,41.998,M,,*61

$GPGGA,131102.00,5003.96718736,N,01955.22939083,E,1,21,0.6,230.072,M,41.998,M,,*65

$GPGGA,131103.00,5003.96719114,N,01955.22939746,E,1,21,0.6,230.083,M,41.998,M,,*63

$GPGGA,131104.00,5003.96719494,N,01955.22939881,E,1,21,0.6,230.094,M,41.998,M,,*6B

$GPGGA,131105.00,5003.96719449,N,01955.22940228,E,1,21,0.6,230.099,M,41.998,M,,*60

$GPGGA,131106.00,5003.96719605,N,01955.22940157,E,1,21,0.6,230.103,M,41.998,M,,*60

$GPGGA,131107.00,5003.96720066,N,01955.22940214,E,1,21,0.6,230.102,M,41.998,M,,*6D

$GPGGA,131108.00,5003.96719765,N,01955.22940372,E,1,21,0.6,230.107,M,41.998,M,,*68

$GPGGA,131109.00,5003.96719882,N,01955.22940722,E,1,21,0.6,230.117,M,41.998,M,,*6F

$GPGGA,131110.00,5003.96720088,N,01955.22941247,E,1,21,0.6,230.131,M,41.998,M,,*6C

$GPGGA,131111.00,5003.96720218,N,01955.22941641,E,1,21,0.6,230.130,M,41.998,M,,*65

$GPGGA,131112.00,5003.96720772,N,01955.22941830,E,1,21,0.6,230.136,M,41.998,M,,*61

$GPGGA,131113.00,5003.96721118,N,01955.22942135,E,1,21,0.6,230.143,M,41.998,M,,*66

$GPGGA,131114.00,5003.96721408,N,01955.22942241,E,1,21,0.6,230.151,M,41.998,M,,*66

$GPGGA,131115.00,5003.96716384,N,01955.22931819,E,1,21,0.6,229.880,M,41.998,M,,*6E

$GPGGA,131116.00,5003.96719093,N,01955.22938421,E,1,21,0.6,230.048,M,41.998,M,,*6D

$GPGGA,131117.00,5003.96717679,N,01955.22935830,E,1,21,0.6,229.981,M,41.998,M,,*65

$GPGGA,131118.00,5003.96718061,N,01955.22936719,E,1,21,0.6,230.009,M,41.998,M,,*6C

$GPGGA,131119.00,5003.96718558,N,01955.22938067,E,1,21,0.6,230.040,M,41.998,M,,*6F

$GPGGA,131120.00,5003.96719659,N,01955.22939674,E,1,21,0.6,230.068,M,41.998,M,,*69

$GPGGA,131121.00,5003.96719997,N,01955.22940781,E,1,21,0.6,230.085,M,41.998,M,,*63

$GPGGA,131122.00,5003.96720272,N,01955.22941202,E,1,21,0.6,230.086,M,41.998,M,,*66

$GPGGA,131123.00,5003.96719679,N,01955.22942061,E,1,21,0.6,230.098,M,41.998,M,,*69

$GPGGA,131124.00,5003.96719694,N,01955.22941934,E,1,21,0.6,230.101,M,41.998,M,,*66

$GPGGA,131125.00,5003.96719679,N,01955.22942417,E,1,21,0.6,230.101,M,41.998,M,,*6B

$GPGGA,131126.00,5003.96719546,N,01955.22942997,E,1,21,0.6,230.117,M,41.998,M,,*65

$GPGGA,131127.00,5003.96719290,N,01955.22943062,E,1,21,0.6,230.123,M,41.998,M,,*6D

$GPGGA,131128.00,5003.96719290,N,01955.22942913,E,1,21,0.6,230.135,M,41.998,M,,*6B

$GPGGA,131129.00,5003.96719488,N,01955.22943881,E,1,21,0.6,230.132,M,41.998,M,,*69

$GPGGA,131130.00,5003.96719487,N,01955.22945087,E,1,21,0.6,230.159,M,41.998,M,,*6B

$GPGGA,131131.00,5003.96720122,N,01955.22945285,E,1,21,0.6,230.154,M,41.998,M,,*67

