$GPGGA,120000.00,5003.96707901,N,01955.22828285,E,1,20,0.6,227.801,M,41.998,M,,*6C

$GPGGA,120001.00,5003.96707731,N,01955.22827982,E,1,20,0.6,227.774,M,41.998,M,,*6E

$GPGGA,120002.00,5003.96707356,N,01955.22827831,E,1,20,0.6,227.755,M,41.998,M,,*62

$GPGGA,120003.00,5003.96707599,N,01955.22828048,E,1,20,0.6,227.768,M,41.998,M,,*61

$GPGGA,120004.00,5003.96704043,N,01955.22827475,E,1,20,0.6,227.789,M,41.998,M,,*6D

$GPGGA,120005.00,5003.96703945,N,01955.22826317,E,1,20,0.6,227.761,M,41.998,M,,*60

$GPGGA,120006.00,5003.96703530,N,01955.22826494,E,1,20,0.6,227.742,M,41.998,M,,*60

$GPGGA,120007.00,5003.96703135,N,01955.22826249,E,1,20,0.6,227.718,M,41.998,M,,*69

$GPGGA,120008.00,5003.96702930,N,01955.22826605,E,1,20,0.6,227.728,M,41.998,M,,*65

$GPGGA,120009.00,5003.96702879,N,01955.22827977,E,1,20,0.6,227.747,M,41.998,M,,*6A

$GPGGA,120010.00,5003.96702636,N,01955.22827621,E,1,20,0.6,227.721,M,41.998,M,,*6B

$GPGGA,120011.00,5003.96728621,N,01955.22804545,E,1,20,0.6,228.178,M,41.998,M,,*61

$GPGGA,120012.00,5003.96728493,N,01955.22805068,E,1,20,0.6,228.178,M,41.998,M,,*62

$GPGGA,120013.00,5003.96728333,N,01955.22806240,E,1,20,0.6,228.175,M,41.998,M,,*68

$GPGGA,120014.00,5003.96727967,N,01955.22806449,E,1,20,0.6,228.152,M,41.998,M,,*61

$GPGGA,120015.00,5003.96727788,N,01955.22807145,E,1,20,0.6,228.159,M,41.998,M,,*6C

$GPGGA,120016.00,5003.96727955,N,01955.22808055,E,1,20,0.6,228.182,M,41.998,M,,*68

$GPGGA,120017.00,5003.96727900,N,01955.22807407,E,1,20,0.6,228.155,M,41.998,M,,*6F

$GPGGA,120018.00,5003.96728107,N,01955.22808198,E,1,20,0.6,228.169,M,41.998,M,,*63

$GPGGA,120019.00,5003.96727979,N,01955.22809056,E,1,20,0.6,228.179,M,41.998,M,,*6F

$GPGGA,120020.00,5003.96728224,N,01955.22809155,E,1,20,0.6,228.173,M,41.998,M,,*61

$GPGGA,120021.00,5003.96727884,N,01955.22808900,E,1,20,0.6,228.144,M,41.998,M,,*62

$GPGGA,120022.00,5003.96727873,N,01955.22808697,E,1,20,0.6,228.139,M,41.998,M,,*62

$GPGGA,120023.00,5003.96727681,N,01955.22809075,E,1,20,0.6,228.130,M,41.998,M,,*62

$GPGGA,120024.00,5003.96727901,N,01955.22809816,E,1,20,0.6,228.148,M,41.998,M,,*60

$GPGGA,120025.00,5003.96727787,N,01955.22810094,E,1,20,0.6,228.152,M,41.998,M,,*60

$GPGGA,120026.00,5003.96728001,N,01955.22809959,E,1,20,0.6,228.133,M,41.998,M,,*62

$GPGGA,120027.00,5003.96728204,N,01955.22809472,E,1,20,0.6,228.123,M,41.998,M,,*61

$GPGGA,120028.00,5003.96728725,N,01955.22811460,E,1,20,0.6,228.194,M,41.998,M,,*6E

$GPGGA,120029.00,5003.96728750,N,01955.22811345,E,1,20,0.6,228.196,M,41.998,M,,*6F

$GPGGA,120030.00,5003.96728597,N,01955.22811885,E,1,20,0.6,228.190,M,41.998,M,,*6F

$GPGGA,120031.00,5003.96728532,N,01955.22811710,E,1,20,0.6,228.190,M,41.998,M,,*62

$GPGGA,120032.00,5003.96728978,N,01955.22812181,E,1,20,0.6,228.198,M,41.998,M,,*66

$GPGGA,120033.00,5003.96729072,N,01955.22812451,E,1,20,0.6,228.190,M,41.998,M,,*65

$GPGGA,120034.00,5003.96728740,N,01955.22810823,E,1,20,0.6,228.127,M,41.998,M,,*62

$GPGGA,120035.00,5003.96728807,N,01955.22811175,E,1,20,0.6,228.119,M,41.998,M,,*69

$GPGGA,120036.00,5003.96728639,N,01955.22812011,E,1,20,0.6,228.128,M,41.998,M,,*6B

$GPGGA,120037.00,5003.96728352,N,01955.22812530,E,1,20,0.6,228.117,M,41.998,M,,*68

$GPGGA,120038.00,5003.96728221,N,01955.22812977,E,1,20,0.6,228.116,M,41.998,M,,*6C

$GPGGA,120039.00,5003.96728154,N,01955.22812838,E,1,20,0.6,228.114,M,41.998,M,,*64

$GPGGA,120040.00,5003.96727948,N,01955.22812452,E,1,20,0.6,228.097,M,41.998,M,,*6A

$GPGGA,120041.00,5003.96728034,N,01955.22813076,E,1,20,0.6,228.114,M,41.998,M,,*6F

$GPGGA,120042.00,5003.96727575,N,01955.22811569,E,1,20,0.6,228.062,M,41.998,M,,*6A

$GPGGA,120043.00,5003.96727583,N,01955.22812409,E,1,20,0.6,228.097,M,41.998,M,,*6C

$GPGGA,120044.00,5003.96727870,N,01955.22812869,E,1,20,0.6,228.115,M,41.998,M,,*6B

$GPZDA,120044.015,06,03,2014,00,00*53

$GPGGA,120045.00,5003.96728036,N,01955.22812523,E,1,20,0.6,228.114,M,41.998,M,,*6D

$GPGGA,120046.00,5003.96727751,N,01955.22812663,E,1,20,0.6,228.129,M,41.998,M,,*6E

$GPGGA,120047.00,5003.96727654,N,01955.22813895,E,1,20,0.6,228.155,M,41.998,M,,*66

$GPGGA,120048.00,5003.96727076,N,01955.22812131,E,1,20,0.6,228.093,M,41.998,M,,*62

$GPGGA,120049.00,5003.96727253,N,01955.22812900,E,1,20,0.6,228.135,M,41.998,M,,*61

$GPGGA,120050.00,5003.96727001,N,01955.22812107,E,1,20,0.6,228.108,M,41.998,M,,*6D

$GPGGA,120051.00,5003.96727050,N,01955.22812163,E,1,20,0.6,228.108,M,41.998,M,,*6A

$GPGGA,120052.00,5003.96727020,N,01955.22811754,E,1,20,0.6,228.093,M,41.998,M,,*6C

$GPGGA,120053.00,5003.96727254,N,01955.22811963,E,1,20,0.6,228.096,M,41.998,M,,*63

$GPGGA,120054.00,5003.96727372,N,01955.22812163,E,1,20,0.6,228.096,M,41.998,M,,*6A

$GPGGA,120055.00,5003.96727646,N,01955.22812010,E,1,20,0.6,228.097,M,41.998,M,,*6D

$GPGGA,120056.00,5003.96727641,N,01955.22811405,E,1,20,0.6,228.080,M,41.998,M,,*6C

$GPGGA,120057.00,5003.96727599,N,01955.22811484,E,1,20,0.6,228.088,M,41.998,M,,*6A

$GPGGA,120058.00,5003.96727376,N,01955.22810523,E,1,20,0.6,228.057,M,41.998,M,,*6D

$GPGGA,120059.00,5003.96727456,N,01955.22809361,E,1,20,0.6,228.016,M,41.998,M,,*64

$GPGGA,120100.00,5003.96727471,N,01955.22808996,E,1,20,0.6,228.009,M,41.998,M,,*61

$GPGGA,120101.00,5003.96727809,N,01955.22811177,E,1,20,0.6,228.075,M,41.998,M,,*67

$GPGGA,120102.00,5003.96727397,N,01955.22810431,E,1,20,0.6,228.039,M,41.998,M,,*66

$GPGGA,120103.00,5003.96727592,N,01955.22812968,E,1,20,0.6,228.092,M,41.998,M,,*66

$GPGGA,120104.00,5003.96727520,N,01955.22813360,E,1,20,0.6,228.102,M,41.998,M,,*63

$GPGGA,120105.00,5003.96727822,N,01955.22815691,E,1,20,0.6,228.159,M,41.998,M,,*6E

$GPGGA,120106.00,5003.96727859,N,01955.22815779,E,1,20,0.6,228.163,M,41.998,M,,*6F

$GPGGA,120107.00,5003.96727463,N,01955.22816177,E,1,20,0.6,228.161,M,41.998,M,,*62

$GPGGA,120108.00,5003.96727299,N,01955.22816701,E,1,20,0.6,228.161,M,41.998,M,,*69

$GPGGA,120109.00,5003.96727247,N,01955.22816897,E,1,20,0.6,228.164,M,41.998,M,,*6E

$GPGGA,120110.00,5003.96727185,N,01955.22817235,E,1,20,0.6,228.168,M,41.998,M,,*64

$GPGGA,120111.00,5003.96727115,N,01955.22817364,E,1,20,0.6,228.165,M,41.998,M,,*64

$GPGGA,120112.00,5003.96727478,N,01955.22817640,E,1,20,0.6,228.176,M,41.998,M,,*68

$GPGGA,120113.00,5003.96727569,N,01955.22818023,E,1,20,0.6,228.175,M,41.998,M,,*67

$GPGGA,120114.00,5003.96727807,N,01955.22818094,E,1,20,0.6,228.185,M,41.998,M,,*66

$GPGGA,120115.00,5003.96728009,N,01955.22818171,E,1,20,0.6,228.186,M,41.998,M,,*67

$GPGGA,120116.00,5003.96728085,N,01955.22818417,E,1,20,0.6,228.196,M,41.998,M,,*64

$GPGGA,120117.00,5003.96728315,N,01955.22818763,E,1,20,0.6,228.199,M,41.998,M,,*60

$GPGGA,120118.00,5003.96728420,N,01955.22819018,E,1,20,0.6,228.206,M,41.998,M,,*61

$GPGGA,120119.00,5003.96728537,N,01955.22818088,E,1,20,0.6,228.180,M,41.998,M,,*62

$GPGGA,120120.00,5003.96728585,N,01955.22819194,E,1,20,0.6,228.216,M,41.998,M,,*60

$GPGGA,120121.00,5003.96728860,N,01955.22819278,E,1,20,0.6,228.217,M,41.998,M,,*67

$GPGGA,120122.00,5003.96729053,N,01955.22819532,E,1,20,0.6,228.218,M,41.998,M,,*6B

$GPGGA,120123.00,5003.96729228,N,01955.22819591,E,1,20,0.6,228.225,M,41.998,M,,*63

$GPGGA,120124.00,5003.96729313,N,01955.22819581,E,1,20,0.6,228.232,M,41.998,M,,*6A

$GPGGA,120125.00,5003.96729226,N,01955.22820129,E,1,20,0.6,228.224,M,41.998,M,,*67

$GPGGA,120126.00,5003.96728954,N,01955.22820637,E,1,20,0.6,228.211,M,41.998,M,,*65

$GPGGA,120127.00,5003.96728913,N,01955.22821101,E,1,20,0.6,228.207,M,41.998,M,,*63

$GPGGA,120128.00,5003.96728885,N,01955.22821580,E,1,20,0.6,228.207,M,41.998,M,,*6F

$GPGGA,120129.00,5003.96728719,N,01955.22821995,E,1,20,0.6,228.203,M,41.998,M,,*68

$GPGGA,120130.00,5003.96729032,N,01955.22822348,E,1,20,0.6,228.203,M,41.998,M,,*66

$GPGGA,120131.00,5003.96729078,N,01955.22822720,E,1,20,0.6,228.202,M,41.998,M,,*62

$GPGGA,120132.00,5003.96729328,N,01955.22822769,E,1,20,0.6,228.210,M,41.998,M,,*69

$GPGGA,120133.00,5003.96729402,N,01955.22823137,E,1,20,0.6,228.213,M,41.998,M,,*68

$GPGGA,120134.00,5003.96729292,N,01955.22823506,E,1,20,0.6,228.210,M,41.998,M,,*65

$GPGGA,120135.00,5003.96729391,N,01955.22823906,E,1,20,0.6,228.209,M,41.998,M,,*62

$GPGGA,120136.00,5003.96729392,N,01955.22824104,E,1,20,0.6,228.206,M,41.998,M,,*60

$GPGGA,120137.00,5003.96729396,N,01955.22824109,E,1,20,0.6,228.207,M,41.998,M,,*69

$GPGGA,120138.00,5003.96729483,N,01955.22824189,E,1,20,0.6,228.207,M,41.998,M,,*6D

$GPGGA,120139.00,5003.96729464,N,01955.22824326,E,1,20,0.6,228.206,M,41.998,M,,*63

$GPGGA,120140.00,5003.96729595,N,01955.22824247,E,1,20,0.6,228.210,M,41.998,M,,*63

$GPGGA,120141.00,5003.96729461,N,01955.22822730,E,1,20,0.6,228.159,M,41.998,M,,*65

$GPGGA,120142.00,5003.96729236,N,01955.22822920,E,1,20,0.6,228.165,M,41.998,M,,*62

$GPGGA,120143.00,5003.96729448,N,01955.22824240,E,1,20,0.6,228.209,M,41.998,M,,*6E

$GPGGA,120144.00,5003.96729408,N,01955.22824695,E,1,20,0.6,228.214,M,41.998,M,,*6D

$GPZDA,120144.016,06,03,2014,00,00*51

$GPGGA,120145.00,5003.96729273,N,01955.22825161,E,1,20,0.6,228.208,M,41.998,M,,*66

$GPGGA,120146.00,5003.96729270,N,01955.22825410,E,1,20,0.6,228.214,M,41.998,M,,*68

$GPGGA,120147.00,5003.96729152,N,01955.22825638,E,1,20,0.6,228.207,M,41.998,M,,*60

$GPGGA,120148.00,5003.96729464,N,01955.22825893,E,1,20,0.6,228.209,M,41.998,M,,*6E

$GPGGA,120149.00,5003.96729758,N,01955.22826170,E,1,20,0.6,228.210,M,41.998,M,,*6C

$GPGGA,120150.00,5003.96729539,N,01955.22826397,E,1,20,0.6,228.208,M,41.998,M,,*63

$GPGGA,120151.00,5003.96729478,N,01955.22827019,E,1,20,0.6,228.199,M,41.998,M,,*69

$GPGGA,120152.00,5003.96729463,N,01955.22826982,E,1,20,0.6,228.202,M,41.998,M,,*6B

$GPGGA,120153.00,5003.96729514,N,01955.22826707,E,1,20,0.6,228.207,M,41.998,M,,*6D

$GPGGA,120154.00,5003.96729797,N,01955.22826932,E,1,20,0.6,228.215,M,41.998,M,,*68

$GPGGA,120155.00,5003.96729876,N,01955.22827386,E,1,20,0.6,228.219,M,41.998,M,,*61

$GPGGA,120156.00,5003.96729627,N,01955.22826590,E,1,20,0.6,228.195,M,41.998,M,,*6F

$GPGGA,120157.00,5003.96729957,N,01955.22827853,E,1,20,0.6,228.228,M,41.998,M,,*60

$GPGGA,120158.00,5003.96729846,N,01955.22828290,E,1,20,0.6,228.224,M,41.998,M,,*68

$GPGGA,120159.00,5003.96729702,N,01955.22828432,E,1,20,0.6,228.224,M,41.998,M,,*68

$GPGGA,120200.00,5003.96729542,N,01955.22828846,E,1,20,0.6,228.218,M,41.998,M,,*61

$GPGGA,120201.00,5003.96729311,N,01955.22828120,E,1,20,0.6,228.177,M,41.998,M,,*63

$GPGGA,120202.00,5003.96729341,N,01955.22829450,E,1,20,0.6,228.207,M,41.998,M,,*62

$GPGGA,120203.00,5003.96729199,N,01955.22829846,E,1,20,0.6,228.198,M,41.998,M,,*6A

$GPGGA,120204.00,5003.96729105,N,01955.22830323,E,1,20,0.6,228.191,M,41.998,M,,*61

$GPGGA,120205.00,5003.96729364,N,01955.22830709,E,1,20,0.6,228.181,M,41.998,M,,*68

$GPGGA,120206.00,5003.96729092,N,01955.22829120,E,1,20,0.6,228.125,M,41.998,M,,*6A

$GPGGA,120207.00,5003.96729312,N,01955.22829784,E,1,20,0.6,228.124,M,41.998,M,,*69

$GPGGA,120208.00,5003.96729532,N,01955.22829673,E,1,20,0.6,228.105,M,41.998,M,,*68

$GPGGA,120209.00,5003.96729689,N,01955.22831719,E,1,20,0.6,228.146,M,41.998,M,,*69

$GPGGA,120210.00,5003.96729525,N,01955.22830934,E,1,20,0.6,228.097,M,41.998,M,,*69

$GPGGA,120211.00,5003.96729632,N,01955.22831434,E,1,20,0.6,228.087,M,41.998,M,,*60

$GPGGA,120212.00,5003.96729754,N,01955.22831780,E,1,20,0.6,228.098,M,41.998,M,,*60

$GPGGA,120213.00,5003.96729895,N,01955.22831998,E,1,20,0.6,228.086,M,41.998,M,,*6B

$GPGGA,120214.00,5003.96729984,N,01955.22831924,E,1,20,0.6,228.070,M,41.998,M,,*63

$GPGGA,120215.00,5003.96729736,N,01955.22832319,E,1,20,0.6,228.059,M,41.998,M,,*69

$GPGGA,120216.00,5003.96729865,N,01955.22832515,E,1,20,0.6,228.074,M,41.998,M,,*66

$GPGGA,120217.00,5003.96729997,N,01955.22833865,E,1,20,0.6,228.109,M,41.998,M,,*6B

$GPGGA,120218.00,5003.96730005,N,01955.22834139,E,1,20,0.6,228.113,M,41.998,M,,*62

$GPGGA,120219.00,5003.96730079,N,01955.22834289,E,1,20,0.6,228.121,M,41.998,M,,*61

$GPGGA,120220.00,5003.96730305,N,01955.22834516,E,1,20,0.6,228.131,M,41.998,M,,*63

$GPGGA,120221.00,5003.96730561,N,01955.22835041,E,1,20,0.6,228.139,M,41.998,M,,*68

$GPGGA,120222.00,5003.96730908,N,01955.22835216,E,1,20,0.6,228.153,M,41.998,M,,*64

$GPGGA,120223.00,5003.96731217,N,01955.22834994,E,1,20,0.6,228.163,M,41.998,M,,*62

$GPGGA,120224.00,5003.96731061,N,01955.22834925,E,1,20,0.6,228.170,M,41.998,M,,*6E

$GPGGA,120225.00,5003.96731224,N,01955.22835444,E,1,20,0.6,228.163,M,41.998,M,,*65

$GPGGA,120226.00,5003.96731598,N,01955.22835802,E,1,20,0.6,228.164,M,41.998,M,,*6F

$GPGGA,120227.00,5003.96731781,N,01955.22835550,E,1,20,0.6,228.168,M,41.998,M,,*62

$GPGGA,120228.00,5003.96731974,N,01955.22835651,E,1,20,0.6,228.171,M,41.998,M,,*63

$GPGGA,120229.00,5003.96732058,N,01955.22835350,E,1,20,0.6,228.172,M,41.998,M,,*61

$GPGGA,120230.00,5003.96732245,N,01955.22835355,E,1,20,0.6,228.182,M,41.998,M,,*6D

$GPGGA,120231.00,5003.96732158,N,01955.22835434,E,1,20,0.6,228.182,M,41.998,M,,*63

$GPGGA,120232.00,5003.96732228,N,01955.22835374,E,1,20,0.6,228.188,M,41.998,M,,*6D

$GPGGA,120233.00,5003.96731778,N,01955.22835180,E,1,20,0.6,228.184,M,41.998,M,,*6A

$GPGGA,120234.00,5003.96731593,N,01955.22835056,E,1,20,0.6,228.187,M,41.998,M,,*63

$GPGGA,120235.00,5003.96731462,N,01955.22835111,E,1,20,0.6,228.179,M,41.998,M,,*6E

$GPGGA,120236.00,5003.96731361,N,01955.22834887,E,1,20,0.6,228.181,M,41.998,M,,*69

$GPGGA,120237.00,5003.96731172,N,01955.22834638,E,1,20,0.6,228.183,M,41.998,M,,*60

$GPGGA,120238.00,5003.96731325,N,01955.22834794,E,1,20,0.6,228.189,M,41.998,M,,*62

$GPGGA,120239.00,5003.96731557,N,01955.22834713,E,1,20,0.6,228.188,M,41.998,M,,*6E

$GPGGA,120240.00,5003.96731793,N,01955.22834553,E,1,20,0.6,228.196,M,41.998,M,,*63

$GPGGA,120241.00,5003.96731991,N,01955.22834473,E,1,20,0.6,228.198,M,41.998,M,,*63

$GPGGA,120242.00,5003.96732070,N,01955.22834520,E,1,20,0.6,228.207,M,41.998,M,,*67

$GPGGA,120243.00,5003.96732108,N,01955.22834350,E,1,20,0.6,228.208,M,41.998,M,,*66

$GPGGA,120244.00,5003.96731962,N,01955.22834171,E,1,20,0.6,228.211,M,41.998,M,,*6F

$GPZDA,120244.015,06,03,2014,00,00*51

$GPGGA,120245.00,5003.96732143,N,01955.22833831,E,1,20,0.6,228.219,M,41.998,M,,*64

$GPGGA,120246.00,5003.96732278,N,01955.22833985,E,1,20,0.6,228.228,M,41.998,M,,*60

$GPGGA,120247.00,5003.96732389,N,01955.22834033,E,1,20,0.6,228.224,M,41.998,M,,*61

$GPGGA,120248.00,5003.96732423,N,01955.22834040,E,1,20,0.6,228.231,M,41.998,M,,*69

$GPGGA,120249.00,5003.96732280,N,01955.22833747,E,1,20,0.6,228.230,M,41.998,M,,*61

$GPGGA,120250.00,5003.96731709,N,01955.22833587,E,1,20,0.6,228.229,M,41.998,M,,*68

$GPGGA,120251.00,5003.96731659,N,01955.22833495,E,1,20,0.6,228.227,M,41.998,M,,*61

$GPGGA,120252.00,5003.96731494,N,01955.22833384,E,1,20,0.6,228.224,M,41.998,M,,*65

$GPGGA,120253.00,5003.96731584,N,01955.22833202,E,1,20,0.6,228.236,M,41.998,M,,*68

$GPGGA,120254.00,5003.96731579,N,01955.22833176,E,1,20,0.6,228.246,M,41.998,M,,*6A

$GPGGA,120255.00,5003.96731592,N,01955.22832899,E,1,20,0.6,228.255,M,41.998,M,,*65

$GPGGA,120256.00,5003.96732018,N,01955.22832611,E,1,20,0.6,228.270,M,41.998,M,,*6B

$GPGGA,120257.00,5003.96732350,N,01955.22832202,E,1,20,0.6,228.284,M,41.998,M,,*68

$GPGGA,120258.00,5003.96733028,N,01955.22831800,E,1,20,0.6,228.311,M,41.998,M,,*6C

$GPGGA,120259.00,5003.96733258,N,01955.22831425,E,1,20,0.6,228.323,M,41.998,M,,*62

$GPGGA,120300.00,5003.96733417,N,01955.22830616,E,1,20,0.6,228.343,M,41.998,M,,*67

$GPGGA,120301.00,5003.96733593,N,01955.22830396,E,1,20,0.6,228.348,M,41.998,M,,*6D

$GPGGA,120302.00,5003.96733693,N,01955.22830129,E,1,20,0.6,228.360,M,41.998,M,,*61

$GPGGA,120303.00,5003.96734159,N,01955.22829901,E,1,20,0.6,228.376,M,41.998,M,,*6B

$GPGGA,120304.00,5003.96734346,N,01955.22829756,E,1,20,0.6,228.389,M,41.998,M,,*6C

$GPGGA,120305.00,5003.96734441,N,01955.22829591,E,1,20,0.6,228.401,M,41.998,M,,*63

$GPGGA,120306.00,5003.96734576,N,01955.22829623,E,1,20,0.6,228.409,M,41.998,M,,*67

$GPGGA,120307.00,5003.96734912,N,01955.22829772,E,1,20,0.6,228.420,M,41.998,M,,*66

$GPGGA,120308.00,5003.96735060,N,01955.22829652,E,1,20,0.6,228.425,M,41.998,M,,*62

$GPGGA,120309.00,5003.96735028,N,01955.22829604,E,1,20,0.6,228.430,M,41.998,M,,*68

$GPGGA,120310.00,5003.96734867,N,01955.22829563,E,1,20,0.6,228.435,M,41.998,M,,*65

$GPGGA,120311.00,5003.96734816,N,01955.22829613,E,1,20,0.6,228.433,M,41.998,M,,*60

$GPGGA,120312.00,5003.96734896,N,01955.22829478,E,1,20,0.6,228.437,M,41.998,M,,*60

$GPGGA,120313.00,5003.96734760,N,01955.22829573,E,1,20,0.6,228.438,M,41.998,M,,*62

$GPGGA,120314.00,5003.96734525,N,01955.22829286,E,1,20,0.6,228.437,M,41.998,M,,*64

$GPGGA,120315.00,5003.96734494,N,01955.22829114,E,1,20,0.6,228.437,M,41.998,M,,*66

$GPGGA,120316.00,5003.96734552,N,01955.22828717,E,1,20,0.6,228.439,M,41.998,M,,*64

$GPGGA,120317.00,5003.96734700,N,01955.22828206,E,1,20,0.6,228.446,M,41.998,M,,*6D

$GPGGA,120318.00,5003.96735060,N,01955.22827964,E,1,20,0.6,228.466,M,41.998,M,,*60

$GPGGA,120319.00,5003.96734789,N,01955.22827959,E,1,20,0.6,228.466,M,41.998,M,,*6E

$GPGGA,120320.00,5003.96734593,N,01955.22828214,E,1,20,0.6,228.465,M,41.998,M,,*63

$GPGGA,120321.00,5003.96734244,N,01955.22828574,E,1,20,0.6,228.463,M,41.998,M,,*68

$GPGGA,120322.00,5003.96734215,N,01955.22828613,E,1,20,0.6,228.464,M,41.998,M,,*6A

$GPGGA,120323.00,5003.96734120,N,01955.22828597,E,1,20,0.6,228.467,M,41.998,M,,*62

$GPGGA,120324.00,5003.96734082,N,01955.22828363,E,1,20,0.6,228.473,M,41.998,M,,*64

$GPGGA,120325.00,5003.96734344,N,01955.22828613,E,1,20,0.6,228.473,M,41.998,M,,*6E

$GPGGA,120326.00,5003.96734177,N,01955.22828951,E,1,20,0.6,228.471,M,41.998,M,,*64

$GPGGA,120327.00,5003.96748667,N,01955.22820917,E,1,21,0.6,228.951,M,41.998,M,,*6C

$GPGGA,120328.00,5003.96748658,N,01955.22821067,E,1,21,0.6,228.960,M,41.998,M,,*62

$GPGGA,120329.00,5003.96748895,N,01955.22821079,E,1,21,0.6,228.966,M,41.998,M,,*65

$GPGGA,120330.00,5003.96748830,N,01955.22820928,E,1,21,0.6,228.986,M,41.998,M,,*60

$GPGGA,120331.00,5003.96748196,N,01955.22820858,E,1,21,0.6,228.972,M,41.998,M,,*69

$GPGGA,120332.00,5003.96747975,N,01955.22820757,E,1,21,0.6,228.983,M,41.998,M,,*6E

$GPGGA,120333.00,5003.96748626,N,01955.22819781,E,1,21,0.6,229.010,M,41.998,M,,*6A

$GPGGA,120334.00,5003.96748449,N,01955.22819231,E,1,21,0.6,229.022,M,41.998,M,,*69

$GPGGA,120335.00,5003.96748151,N,01955.22818873,E,1,21,0.6,229.025,M,41.998,M,,*6E

$GPGGA,120336.00,5003.96748263,N,01955.22818648,E,1,21,0.6,229.041,M,41.998,M,,*6B

$GPGGA,120337.00,5003.96748202,N,01955.22818652,E,1,21,0.6,229.050,M,41.998,M,,*66

$GPGGA,120338.00,5003.96748490,N,01955.22818584,E,1,21,0.6,229.064,M,41.998,M,,*6B

$GPGGA,120339.00,5003.96748455,N,01955.22818129,E,1,21,0.6,229.072,M,41.998,M,,*67

$GPGGA,120340.00,5003.96748582,N,01955.22818034,E,1,21,0.6,229.087,M,41.998,M,,*65

$GPGGA,120341.00,5003.96748571,N,01955.22817998,E,1,21,0.6,229.089,M,41.998,M,,*66

$GPGGA,120342.00,5003.96748814,N,01955.22817745,E,1,21,0.6,229.108,M,41.998,M,,*6D

$GPGGA,120343.00,5003.96749033,N,01955.22817331,E,1,21,0.6,229.113,M,41.998,M,,*6D

$GPGGA,120344.00,5003.96749253,N,01955.22817227,E,1,21,0.6,229.130,M,41.998,M,,*69

$GPZDA,120344.016,06,03,2014,00,00*53

$GPGGA,120345.00,5003.96749208,N,01955.22817418,E,1,21,0.6,229.136,M,41.998,M,,*6A

$GPGGA,120346.00,5003.96749349,N,01955.22817653,E,1,21,0.6,229.153,M,41.998,M,,*63

$GPGGA,120347.00,5003.96749312,N,01955.22817720,E,1,21,0.6,229.160,M,41.998,M,,*69

$GPGGA,120348.00,5003.96749497,N,01955.22817563,E,1,21,0.6,229.174,M,41.998,M,,*6C

$GPGGA,120349.00,5003.96749607,N,01955.22817060,E,1,21,0.6,229.181,M,41.998,M,,*6A

$GPGGA,120350.00,5003.96750051,N,01955.22816562,E,1,21,0.6,229.203,M,41.998,M,,*60

$GPGGA,120351.00,5003.96749763,N,01955.22816415,E,1,21,0.6,229.207,M,41.998,M,,*6A

$GPGGA,120352.00,5003.96749813,N,01955.22816374,E,1,21,0.6,229.223,M,41.998,M,,*67

$GPGGA,120353.00,5003.96749737,N,01955.22816416,E,1,21,0.6,229.226,M,41.998,M,,*69

$GPGGA,120354.00,5003.96749782,N,01955.22816079,E,1,21,0.6,229.248,M,41.998,M,,*65

$GPGGA,120355.00,5003.96749808,N,01955.22815761,E,1,21,0.6,229.248,M,41.998,M,,*64

$GPGGA,120356.00,5003.96749585,N,01955.22815656,E,1,21,0.6,229.258,M,41.998,M,,*6B

$GPGGA,120357.00,5003.96749357,N,01955.22815686,E,1,21,0.6,229.259,M,41.998,M,,*6F

$GPGGA,120358.00,5003.96749738,N,01955.22815627,E,1,21,0.6,229.269,M,41.998,M,,*65

$GPGGA,120359.00,5003.96749999,N,01955.22815614,E,1,21,0.6,229.270,M,41.998,M,,*69

$GPGGA,120400.00,5003.96750086,N,01955.22815423,E,1,21,0.6,229.282,M,41.998,M,,*66

$GPGGA,120401.00,5003.96749952,N,01955.22815146,E,1,21,0.6,229.277,M,41.998,M,,*63

$GPGGA,120402.00,5003.96749831,N,01955.22815240,E,1,21,0.6,229.281,M,41.998,M,,*68

$GPGGA,120403.00,5003.96749894,N,01955.22815218,E,1,21,0.6,229.285,M,41.998,M,,*6F

$GPGGA,120404.00,5003.96750188,N,01955.22814783,E,1,21,0.6,229.294,M,41.998,M,,*62

$GPGGA,120405.00,5003.96750254,N,01955.22814648,E,1,21,0.6,229.292,M,41.998,M,,*61

$GPGGA,120406.00,5003.96750471,N,01955.22814255,E,1,21,0.6,229.310,M,41.998,M,,*60

$GPGGA,120407.00,5003.96750358,N,01955.22814229,E,1,21,0.6,229.313,M,41.998,M,,*65

$GPGGA,120408.00,5003.96750551,N,01955.22814206,E,1,21,0.6,229.321,M,41.998,M,,*69

$GPGGA,120409.00,5003.96750556,N,01955.22814164,E,1,21,0.6,229.324,M,41.998,M,,*6D

$GPGGA,120410.00,5003.96750747,N,01955.22814263,E,1,21,0.6,229.336,M,41.998,M,,*60

$GPGGA,120411.00,5003.96750979,N,01955.22813842,E,1,21,0.6,229.345,M,41.998,M,,*68

$GPGGA,120412.00,5003.96750897,N,01955.22813575,E,1,21,0.6,229.364,M,41.998,M,,*60

$GPGGA,120413.00,5003.96750560,N,01955.22813464,E,1,21,0.6,229.362,M,41.998,M,,*63

$GPGGA,120414.00,5003.96750585,N,01955.22813422,E,1,21,0.6,229.368,M,41.998,M,,*67

$GPGGA,120415.00,5003.96750419,N,01955.22813199,E,1,21,0.6,229.363,M,41.998,M,,*6C

$GPGGA,120416.00,5003.96750223,N,01955.22813323,E,1,21,0.6,229.377,M,41.998,M,,*66

$GPGGA,120417.00,5003.96750229,N,01955.22813265,E,1,21,0.6,229.375,M,41.998,M,,*6C

$GPGGA,120418.00,5003.96750283,N,01955.22813187,E,1,21,0.6,229.387,M,41.998,M,,*61

$GPGGA,120419.00,5003.96750273,N,01955.22813109,E,1,21,0.6,229.387,M,41.998,M,,*69

$GPGGA,120420.00,5003.96750098,N,01955.22812698,E,1,21,0.6,229.398,M,41.998,M,,*64

$GPGGA,120421.00,5003.96749891,N,01955.22812448,E,1,21,0.6,229.398,M,41.998,M,,*63

$GPGGA,120422.00,5003.96749748,N,01955.22812284,E,1,21,0.6,229.406,M,41.998,M,,*6D

$GPGGA,120423.00,5003.96749596,N,01955.22812449,E,1,21,0.6,229.407,M,41.998,M,,*6B

$GPGGA,120424.00,5003.96749627,N,01955.22812578,E,1,21,0.6,229.421,M,41.998,M,,*62

$GPGGA,120425.00,5003.96749250,N,01955.22812604,E,1,21,0.6,229.418,M,41.998,M,,*65

$GPGGA,120426.00,5003.96749245,N,01955.22812573,E,1,21,0.6,229.431,M,41.998,M,,*6A

$GPGGA,120427.00,5003.96749019,N,01955.22812633,E,1,21,0.6,229.434,M,41.998,M,,*62

$GPGGA,120428.00,5003.96749040,N,01955.22812718,E,1,21,0.6,229.446,M,41.998,M,,*6C

$GPGGA,120429.00,5003.96749101,N,01955.22812687,E,1,21,0.6,229.448,M,41.998,M,,*60

$GPGGA,120430.00,5003.96749215,N,01955.22812847,E,1,21,0.6,229.458,M,41.998,M,,*6D

$GPGGA,120431.00,5003.96749123,N,01955.22813129,E,1,21,0.6,229.456,M,41.998,M,,*64

$GPGGA,120432.00,5003.96749122,N,01955.22813067,E,1,21,0.6,229.472,M,41.998,M,,*6B

$GPGGA,120433.00,5003.96749063,N,01955.22813081,E,1,21,0.6,229.474,M,41.998,M,,*60

$GPGGA,120434.00,5003.96748655,N,01955.22813895,E,1,21,0.6,229.463,M,41.998,M,,*6E

$GPGGA,120435.00,5003.96748176,N,01955.22814239,E,1,21,0.6,229.451,M,41.998,M,,*63

$GPGGA,120436.00,5003.96748550,N,01955.22813853,E,1,21,0.6,229.466,M,41.998,M,,*65

$GPGGA,120437.00,5003.96748746,N,01955.22813823,E,1,21,0.6,229.473,M,41.998,M,,*62

$GPGGA,120438.00,5003.96749576,N,01955.22813831,E,1,21,0.6,229.501,M,41.998,M,,*6A

$GPGGA,120439.00,5003.96749355,N,01955.22814205,E,1,21,0.6,229.497,M,41.998,M,,*68

$GPGGA,120440.00,5003.96749325,N,01955.22814335,E,1,21,0.6,229.504,M,41.998,M,,*68

$GPGGA,120441.00,5003.96749213,N,01955.22814364,E,1,21,0.6,229.505,M,41.998,M,,*68

$GPGGA,120442.00,5003.96749453,N,01955.22814456,E,1,21,0.6,229.517,M,41.998,M,,*6C

$GPGGA,120443.00,5003.96749403,N,01955.22814351,E,1,21,0.6,229.519,M,41.998,M,,*66

$GPGGA,120444.00,5003.96749434,N,01955.22814363,E,1,21,0.6,229.530,M,41.998,M,,*6F

$GPZDA,120444.015,06,03,2014,00,00*57

$GPGGA,120445.00,5003.96749533,N,01955.22814695,E,1,21,0.6,229.529,M,41.998,M,,*6C

$GPGGA,120446.00,5003.96749674,N,01955.22815173,E,1,21,0.6,229.543,M,41.998,M,,*6D

$GPGGA,120447.00,5003.96749734,N,01955.22815304,E,1,21,0.6,229.545,M,41.998,M,,*6D

$GPGGA,120448.00,5003.96750486,N,01955.22815053,E,1,21,0.6,229.566,M,41.998,M,,*60

$GPGGA,120449.00,5003.96750682,N,01955.22815089,E,1,21,0.6,229.568,M,41.998,M,,*6E

$GPGGA,120450.00,5003.96750807,N,01955.22815164,E,1,21,0.6,229.572,M,41.998,M,,*6C

$GPGGA,120451.00,5003.96750883,N,01955.22814957,E,1,21,0.6,229.571,M,41.998,M,,*6B

$GPGGA,120452.00,5003.96751000,N,01955.22814841,E,1,21,0.6,229.577,M,41.998,M,,*6A

$GPGGA,120453.00,5003.96751073,N,01955.22814542,E,1,21,0.6,229.578,M,41.998,M,,*6E

$GPGGA,120454.00,5003.96751065,N,01955.22814460,E,1,21,0.6,229.590,M,41.998,M,,*69

$GPGGA,120455.00,5003.96750997,N,01955.22814278,E,1,21,0.6,229.583,M,41.998,M,,*60

$GPGGA,120456.00,5003.96751137,N,01955.22814589,E,1,21,0.6,229.590,M,41.998,M,,*6B

$GPGGA,120457.00,5003.96750697,N,01955.22814642,E,1,21,0.6,229.577,M,41.998,M,,*6B

$GPGGA,120458.00,5003.96751026,N,01955.22814705,E,1,21,0.6,229.580,M,41.998,M,,*63

$GPGGA,120459.00,5003.96750940,N,01955.22814716,E,1,21,0.6,229.575,M,41.998,M,,*62

$GPGGA,120500.00,5003.96750977,N,01955.22814611,E,1,21,0.6,229.586,M,41.998,M,,*61

$GPGGA,120501.00,5003.96750853,N,01955.22814528,E,1,21,0.6,229.582,M,41.998,M,,*6A

$GPGGA,120502.00,5003.96750957,N,01955.22814722,E,1,21,0.6,229.593,M,41.998,M,,*64

$GPGGA,120503.00,5003.96751063,N,01955.22814538,E,1,21,0.6,229.592,M,41.998,M,,*62

$GPGGA,120504.00,5003.96751307,N,01955.22814016,E,1,21,0.6,229.608,M,41.998,M,,*6D

$GPGGA,120505.00,5003.96751264,N,01955.22813537,E,1,21,0.6,229.616,M,41.998,M,,*66

$GPGGA,120506.00,5003.96751639,N,01955.22813960,E,1,21,0.6,229.628,M,41.998,M,,*6A

$GPGGA,120507.00,5003.96751589,N,01955.22814184,E,1,21,0.6,229.627,M,41.998,M,,*69

$GPGGA,120508.00,5003.96751563,N,01955.22814481,E,1,21,0.6,229.631,M,41.998,M,,*65

$GPGGA,120509.00,5003.96751464,N,01955.22814685,E,1,21,0.6,229.625,M,41.998,M,,*61

$GPGGA,120510.00,5003.96751471,N,01955.22814737,E,1,21,0.6,229.630,M,41.998,M,,*61

$GPGGA,120511.00,5003.96751388,N,01955.22814701,E,1,21,0.6,229.621,M,41.998,M,,*64

$GPGGA,120512.00,5003.96751399,N,01955.22814797,E,1,21,0.6,229.621,M,41.998,M,,*68

$GPGGA,120513.00,5003.96751386,N,01955.22814878,E,1,21,0.6,229.614,M,41.998,M,,*6F

$GPGGA,120514.00,5003.96751508,N,01955.22814448,E,1,21,0.6,229.624,M,41.998,M,,*64

$GPGGA,120515.00,5003.96751376,N,01955.22814384,E,1,21,0.6,229.624,M,41.998,M,,*6D

$GPGGA,120516.00,5003.96751436,N,01955.22814357,E,1,21,0.6,229.637,M,41.998,M,,*61

$GPGGA,120517.00,5003.96751571,N,01955.22814274,E,1,21,0.6,229.633,M,41.998,M,,*66

$GPGGA,120518.00,5003.96751784,N,01955.22814199,E,1,21,0.6,229.644,M,41.998,M,,*61

$GPGGA,120519.00,5003.96752051,N,01955.22814248,E,1,21,0.6,229.643,M,41.998,M,,*64

$GPGGA,120520.00,5003.96752142,N,01955.22814258,E,1,21,0.6,229.654,M,41.998,M,,*6A

$GPGGA,120521.00,5003.96752144,N,01955.22814539,E,1,21,0.6,229.650,M,41.998,M,,*69

$GPGGA,120522.00,5003.96751919,N,01955.22814785,E,1,21,0.6,229.658,M,41.998,M,,*64

$GPGGA,120523.00,5003.96751699,N,01955.22814667,E,1,21,0.6,229.655,M,41.998,M,,*62

$GPGGA,120524.00,5003.96751535,N,01955.22814617,E,1,21,0.6,229.660,M,41.998,M,,*61

$GPGGA,120525.00,5003.96751690,N,01955.22814823,E,1,21,0.6,229.661,M,41.998,M,,*64

$GPGGA,120526.00,5003.96752048,N,01955.22815073,E,1,21,0.6,229.671,M,41.998,M,,*6A

$GPGGA,120527.00,5003.96751772,N,01955.22815500,E,1,21,0.6,229.664,M,41.998,M,,*63

$GPGGA,120528.00,5003.96751932,N,01955.22815835,E,1,21,0.6,229.676,M,41.998,M,,*6E

$GPGGA,120529.00,5003.96751970,N,01955.22816155,E,1,21,0.6,229.677,M,41.998,M,,*64

$GPGGA,120530.00,5003.96752148,N,01955.22816447,E,1,21,0.6,229.688,M,41.998,M,,*6A

$GPGGA,120531.00,5003.96752156,N,01955.22816625,E,1,21,0.6,229.680,M,41.998,M,,*6A

$GPGGA,120532.00,5003.96752010,N,01955.22816596,E,1,21,0.6,229.686,M,41.998,M,,*67

$GPGGA,120533.00,5003.96751992,N,01955.22817106,E,1,21,0.6,229.678,M,41.998,M,,*6B

$GPGGA,120534.00,5003.96752058,N,01955.22817408,E,1,21,0.6,229.677,M,41.998,M,,*64

$GPGGA,120535.00,5003.96751916,N,01955.22817609,E,1,21,0.6,229.672,M,41.998,M,,*63

$GPGGA,120536.00,5003.96752060,N,01955.22817853,E,1,21,0.6,229.677,M,41.998,M,,*6F

$GPGGA,120537.00,5003.96752100,N,01955.22817981,E,1,21,0.6,229.675,M,41.998,M,,*65

$GPGGA,120538.00,5003.96752099,N,01955.22818203,E,1,21,0.6,229.680,M,41.998,M,,*6F

$GPGGA,120539.00,5003.96752396,N,01955.22818680,E,1,21,0.6,229.680,M,41.998,M,,*6D

$GPGGA,120540.00,5003.96752569,N,01955.22818711,E,1,21,0.6,229.687,M,41.998,M,,*6B

$GPGGA,120541.00,5003.96752548,N,01955.22818696,E,1,21,0.6,229.686,M,41.998,M,,*66

$GPGGA,120542.00,5003.96752632,N,01955.22819012,E,1,21,0.6,229.696,M,41.998,M,,*61

$GPGGA,120543.00,5003.96752432,N,01955.22819220,E,1,21,0.6,229.694,M,41.998,M,,*63

$GPGGA,120544.00,5003.96752421,N,01955.22819334,E,1,21,0.6,229.706,M,41.998,M,,*68

$GPZDA,120544.015,06,03,2014,00,00*56

$GPGGA,120545.00,5003.96752176,N,01955.22819443,E,1,21,0.6,229.692,M,41.998,M,,*65

$GPGGA,120546.00,5003.96752456,N,01955.22819561,E,1,21,0.6,229.700,M,41.998,M,,*6A

$GPGGA,120547.00,5003.96752435,N,01955.22819043,E,1,21,0.6,229.705,M,41.998,M,,*6E

$GPGGA,120548.00,5003.96752512,N,01955.22818788,E,1,21,0.6,229.716,M,41.998,M,,*66

$GPGGA,120549.00,5003.96752703,N,01955.22818546,E,1,21,0.6,229.712,M,41.998,M,,*61

$GPGGA,120550.00,5003.96752723,N,01955.22816807,E,1,21,0.6,229.673,M,41.998,M,,*6B

$GPGGA,120551.00,5003.96752582,N,01955.22816290,E,1,21,0.6,229.662,M,41.998,M,,*67

$GPGGA,120552.00,5003.96752591,N,01955.22816021,E,1,21,0.6,229.671,M,41.998,M,,*6C

$GPGGA,120553.00,5003.96752728,N,01955.22815894,E,1,21,0.6,229.680,M,41.998,M,,*66

$GPGGA,120554.00,5003.96752919,N,01955.22815540,E,1,21,0.6,229.674,M,41.998,M,,*62

$GPGGA,120555.00,5003.96753103,N,01955.22816402,E,1,21,0.6,229.713,M,41.998,M,,*65

$GPGGA,120556.00,5003.96753122,N,01955.22816183,E,1,21,0.6,229.718,M,41.998,M,,*62

$GPGGA,120557.00,5003.96752912,N,01955.22814839,E,1,21,0.6,229.680,M,41.998,M,,*63

$GPGGA,120558.00,5003.96753224,N,01955.22816074,E,1,21,0.6,229.727,M,41.998,M,,*6C

$GPGGA,120559.00,5003.96753309,N,01955.22815950,E,1,21,0.6,229.723,M,41.998,M,,*6B

$GPGGA,120600.00,5003.96753383,N,01955.22815840,E,1,21,0.6,229.731,M,41.998,M,,*65

$GPGGA,120601.00,5003.96753351,N,01955.22816014,E,1,21,0.6,229.723,M,41.998,M,,*62

$GPGGA,120602.00,5003.96753342,N,01955.22815743,E,1,21,0.6,229.726,M,41.998,M,,*60

$GPGGA,120603.00,5003.96753374,N,01955.22815559,E,1,21,0.6,229.725,M,41.998,M,,*6E

$GPGGA,120604.00,5003.96753475,N,01955.22815475,E,1,21,0.6,229.737,M,41.998,M,,*63

$GPGGA,120605.00,5003.96753349,N,01955.22815648,E,1,21,0.6,229.734,M,41.998,M,,*65

$GPGGA,120606.00,5003.96753251,N,01955.22815790,E,1,21,0.6,229.733,M,41.998,M,,*6D

$GPGGA,120607.00,5003.96753241,N,01955.22815945,E,1,21,0.6,229.720,M,41.998,M,,*69

$GPGGA,120608.00,5003.96753523,N,01955.22816158,E,1,21,0.6,229.734,M,41.998,M,,*67

$GPGGA,120609.00,5003.96753460,N,01955.22816281,E,1,21,0.6,229.731,M,41.998,M,,*62

$GPGGA,120610.00,5003.96753470,N,01955.22816655,E,1,21,0.6,229.736,M,41.998,M,,*61

$GPGGA,120611.00,5003.96753185,N,01955.22815621,E,1,21,0.6,229.700,M,41.998,M,,*6A

$GPGGA,120612.00,5003.96753207,N,01955.22816877,E,1,21,0.6,229.737,M,41.998,M,,*6A

$GPGGA,120613.00,5003.96753305,N,01955.22816809,E,1,21,0.6,229.726,M,41.998,M,,*61

$GPGGA,120614.00,5003.96753587,N,01955.22817036,E,1,21,0.6,229.739,M,41.998,M,,*61

$GPGGA,120615.00,5003.96753253,N,01955.22817030,E,1,21,0.6,229.731,M,41.998,M,,*60

$GPGGA,120616.00,5003.96753367,N,01955.22817448,E,1,21,0.6,229.740,M,41.998,M,,*68

$GPGGA,120617.00,5003.96753096,N,01955.22817663,E,1,21,0.6,229.729,M,41.998,M,,*60

$GPGGA,120618.00,5003.96752893,N,01955.22817735,E,1,21,0.6,229.727,M,41.998,M,,*6F

$GPGGA,120619.00,5003.96752763,N,01955.22817715,E,1,21,0.6,229.718,M,41.998,M,,*60

$GPGGA,120620.00,5003.96752906,N,01955.22817888,E,1,21,0.6,229.727,M,41.998,M,,*60

$GPGGA,120621.00,5003.96752985,N,01955.22818233,E,1,21,0.6,229.729,M,41.998,M,,*61

$GPGGA,120622.00,5003.96752939,N,01955.22818338,E,1,21,0.6,229.730,M,41.998,M,,*67

$GPGGA,120623.00,5003.96752795,N,01955.22818520,E,1,21,0.6,229.721,M,41.998,M,,*61

$GPGGA,120624.00,5003.96752781,N,01955.22818811,E,1,21,0.6,229.723,M,41.998,M,,*6E

$GPGGA,120625.00,5003.96752894,N,01955.22818915,E,1,21,0.6,229.722,M,41.998,M,,*60

$GPGGA,120626.00,5003.96753141,N,01955.22819153,E,1,21,0.6,229.731,M,41.998,M,,*6A

$GPGGA,120627.00,5003.96753047,N,01955.22819038,E,1,21,0.6,229.724,M,41.998,M,,*64

$GPGGA,120628.00,5003.96752972,N,01955.22819053,E,1,21,0.6,229.716,M,41.998,M,,*69

$GPGGA,120629.00,5003.96752926,N,01955.22818732,E,1,21,0.6,229.713,M,41.998,M,,*6D

$GPGGA,120630.00,5003.96752875,N,01955.22818947,E,1,21,0.6,229.704,M,41.998,M,,*68

$GPGGA,120631.00,5003.96752964,N,01955.22818959,E,1,21,0.6,229.708,M,41.998,M,,*6B

$GPGGA,120632.00,5003.96752858,N,01955.22819149,E,1,21,0.6,229.700,M,41.998,M,,*66

$GPGGA,120633.00,5003.96752681,N,01955.22819423,E,1,21,0.6,229.705,M,41.998,M,,*61

$GPGGA,120634.00,5003.96752513,N,01955.22819249,E,1,21,0.6,229.703,M,41.998,M,,*62

$GPGGA,120635.00,5003.96752516,N,01955.22819588,E,1,21,0.6,229.698,M,41.998,M,,*6F

$GPGGA,120636.00,5003.96752482,N,01955.22819758,E,1,21,0.6,229.695,M,41.998,M,,*62

$GPGGA,120637.00,5003.96752528,N,01955.22819703,E,1,21,0.6,229.695,M,41.998,M,,*6C

$GPGGA,120638.00,5003.96752551,N,01955.22819853,E,1,21,0.6,229.689,M,41.998,M,,*6A

$GPGGA,120639.00,5003.96752619,N,01955.22820101,E,1,21,0.6,229.685,M,41.998,M,,*6C

$GPGGA,120640.00,5003.96752524,N,01955.22819829,E,1,21,0.6,229.680,M,41.998,M,,*63

$GPGGA,120641.00,5003.96752650,N,01955.22819923,E,1,21,0.6,229.680,M,41.998,M,,*69

$GPGGA,120642.00,5003.96752437,N,01955.22819883,E,1,21,0.6,229.678,M,41.998,M,,*65

$GPGGA,120643.00,5003.96752407,N,01955.22819876,E,1,21,0.6,229.678,M,41.998,M,,*6D

$GPGGA,120644.00,5003.96752337,N,01955.22819920,E,1,21,0.6,229.670,M,41.998,M,,*64

$GPZDA,120644.015,06,03,2014,00,00*55

$GPGGA,120645.00,5003.96752317,N,01955.22820187,E,1,21,0.6,229.666,M,41.998,M,,*6F

$GPGGA,120646.00,5003.96752329,N,01955.22820458,E,1,21,0.6,229.659,M,41.998,M,,*6A

$GPGGA,120647.00,5003.96752374,N,01955.22820399,E,1,21,0.6,229.655,M,41.998,M,,*65

$GPGGA,120648.00,5003.96752394,N,01955.22820378,E,1,21,0.6,229.650,M,41.998,M,,*6E

$GPGGA,120649.00,5003.96752541,N,01955.22820091,E,1,21,0.6,229.651,M,41.998,M,,*64

$GPGGA,120650.00,5003.96752579,N,01955.22820081,E,1,21,0.6,229.647,M,41.998,M,,*61

$GPGGA,120651.00,5003.96752732,N,01955.22820472,E,1,21,0.6,229.644,M,41.998,M,,*66

$GPGGA,120652.00,5003.96752466,N,01955.22820186,E,1,21,0.6,229.633,M,41.998,M,,*69

$GPGGA,120653.00,5003.96752279,N,01955.22819903,E,1,21,0.6,229.632,M,41.998,M,,*6E

$GPGGA,120654.00,5003.96751990,N,01955.22819927,E,1,21,0.6,229.616,M,41.998,M,,*66

$GPGGA,120655.00,5003.96751728,N,01955.22820140,E,1,21,0.6,229.606,M,41.998,M,,*68

$GPGGA,120656.00,5003.96751560,N,01955.22820095,E,1,21,0.6,229.597,M,41.998,M,,*67

$GPGGA,120657.00,5003.96751307,N,01955.22819978,E,1,21,0.6,229.592,M,41.998,M,,*64

$GPGGA,120658.00,5003.96751018,N,01955.22819634,E,1,21,0.6,229.582,M,41.998,M,,*60

$GPGGA,120659.00,5003.96750780,N,01955.22819980,E,1,21,0.6,229.578,M,41.998,M,,*63

$GPGGA,120700.00,5003.96750540,N,01955.22819925,E,1,21,0.6,229.568,M,41.998,M,,*6E

$GPGGA,120701.00,5003.96750337,N,01955.22819556,E,1,21,0.6,229.564,M,41.998,M,,*6D

$GPGGA,120702.00,5003.96750215,N,01955.22818284,E,1,21,0.6,229.527,M,41.998,M,,*61

$GPGGA,120703.00,5003.96750118,N,01955.22817220,E,1,21,0.6,229.497,M,41.998,M,,*65

$GPGGA,120704.00,5003.96749829,N,01955.22817543,E,1,21,0.6,229.493,M,41.998,M,,*67

$GPGGA,120705.00,5003.96749628,N,01955.22817138,E,1,21,0.6,229.480,M,41.998,M,,*63

$GPGGA,120706.00,5003.96749692,N,01955.22818036,E,1,21,0.6,229.491,M,41.998,M,,*61

$GPGGA,120707.00,5003.96749553,N,01955.22817369,E,1,21,0.6,229.472,M,41.998,M,,*65

$GPGGA,120708.00,5003.96749222,N,01955.22816751,E,1,21,0.6,229.440,M,41.998,M,,*64

$GPGGA,120709.00,5003.96748964,N,01955.22816851,E,1,21,0.6,229.448,M,41.998,M,,*6A

$GPGGA,120710.00,5003.96748821,N,01955.22817036,E,1,21,0.6,229.450,M,41.998,M,,*63

$GPGGA,120711.00,5003.96749069,N,01955.22817231,E,1,21,0.6,229.452,M,41.998,M,,*60

$GPGGA,120712.00,5003.96749087,N,01955.22815872,E,1,21,0.6,229.415,M,41.998,M,,*6F

$GPGGA,120713.00,5003.96748990,N,01955.22816233,E,1,21,0.6,229.430,M,41.998,M,,*6B

$GPGGA,120714.00,5003.96749030,N,01955.22816698,E,1,21,0.6,229.436,M,41.998,M,,*6D

$GPGGA,120715.00,5003.96749230,N,01955.22816110,E,1,21,0.6,229.426,M,41.998,M,,*68

$GPGGA,120716.00,5003.96749316,N,01955.22816511,E,1,21,0.6,229.429,M,41.998,M,,*64

$GPGGA,120717.00,5003.96749503,N,01955.22816451,E,1,21,0.6,229.430,M,41.998,M,,*6A

$GPGGA,120718.00,5003.96749625,N,01955.22817609,E,1,21,0.6,229.445,M,41.998,M,,*6E

$GPGGA,120719.00,5003.96749583,N,01955.22817618,E,1,21,0.6,229.429,M,41.998,M,,*6A

$GPGGA,120720.00,5003.96749665,N,01955.22819583,E,1,21,0.6,229.475,M,41.998,M,,*6D

$GPGGA,120721.00,5003.96749597,N,01955.22818309,E,1,21,0.6,229.438,M,41.998,M,,*6E

$GPGGA,120722.00,5003.96749648,N,01955.22817920,E,1,21,0.6,229.423,M,41.998,M,,*68

$GPGGA,120723.00,5003.96749582,N,01955.22817607,E,1,21,0.6,229.395,M,41.998,M,,*6C

$GPGGA,120724.00,5003.96749659,N,01955.22818960,E,1,21,0.6,229.410,M,41.998,M,,*65

$GPGGA,120725.00,5003.96749812,N,01955.22820941,E,1,21,0.6,229.451,M,41.998,M,,*68

$GPGGA,120726.00,5003.96749977,N,01955.22821280,E,1,21,0.6,229.449,M,41.998,M,,*67

$GPGGA,120727.00,5003.96750002,N,01955.22821720,E,1,21,0.6,229.446,M,41.998,M,,*65

$GPGGA,120728.00,5003.96750005,N,01955.22821920,E,1,21,0.6,229.443,M,41.998,M,,*66

$GPGGA,120729.00,5003.96750114,N,01955.22820795,E,1,21,0.6,229.417,M,41.998,M,,*66

$GPGGA,120730.00,5003.96750187,N,01955.22822195,E,1,21,0.6,229.445,M,41.998,M,,*67

$GPGGA,120731.00,5003.96750381,N,01955.22821945,E,1,21,0.6,229.446,M,41.998,M,,*67

$GPGGA,120732.00,5003.96750396,N,01955.22822074,E,1,21,0.6,229.440,M,41.998,M,,*6C

$GPGGA,120733.00,5003.96750597,N,01955.22822081,E,1,21,0.6,229.438,M,41.998,M,,*6F

$GPGGA,120734.00,5003.96750480,N,01955.22822090,E,1,21,0.6,229.437,M,41.998,M,,*60

$GPGGA,120735.00,5003.96750184,N,01955.22822093,E,1,21,0.6,229.433,M,41.998,M,,*67

$GPGGA,120736.00,5003.96750049,N,01955.22821934,E,1,21,0.6,229.427,M,41.998,M,,*66

$GPGGA,120737.00,5003.96750146,N,01955.22821855,E,1,21,0.6,229.430,M,41.998,M,,*69

$GPGGA,120738.00,5003.96750198,N,01955.22821727,E,1,21,0.6,229.435,M,41.998,M,,*6A

$GPGGA,120739.00,5003.96750335,N,01955.22821456,E,1,21,0.6,229.443,M,41.998,M,,*6A

$GPGGA,120740.00,5003.96750329,N,01955.22821091,E,1,21,0.6,229.442,M,41.998,M,,*67

$GPGGA,120741.00,5003.96750248,N,01955.22821130,E,1,21,0.6,229.442,M,41.998,M,,*6A

$GPGGA,120742.00,5003.96750189,N,01955.22821229,E,1,21,0.6,229.445,M,41.998,M,,*6B

$GPGGA,120743.00,5003.96749942,N,01955.22821383,E,1,21,0.6,229.440,M,41.998,M,,*69

$GPGGA,120744.00,5003.96749859,N,01955.22821525,E,1,21,0.6,229.437,M,41.998,M,,*6F

$GPZDA,120744.015,06,03,2014,00,00*54

$GPGGA,120745.00,5003.96750054,N,01955.22821258,E,1,21,0.6,229.445,M,41.998,M,,*6B

$GPGGA,120746.00,5003.96749941,N,01955.22821244,E,1,21,0.6,229.449,M,41.998,M,,*6C

$GPGGA,120747.00,5003.96750045,N,01955.22821305,E,1,21,0.6,229.459,M,41.998,M,,*6D

$GPGGA,120748.00,5003.96750047,N,01955.22821659,E,1,21,0.6,229.462,M,41.998,M,,*64

$GPGGA,120749.00,5003.96749916,N,01955.22821529,E,1,21,0.6,229.459,M,41.998,M,,*6C

$GPGGA,120750.00,5003.96750110,N,01955.22821609,E,1,21,0.6,229.466,M,41.998,M,,*6F

$GPGGA,120751.00,5003.96749971,N,01955.22821488,E,1,21,0.6,229.475,M,41.998,M,,*60

$GPGGA,120752.00,5003.96750163,N,01955.22821615,E,1,21,0.6,229.486,M,41.998,M,,*6A

$GPGGA,120753.00,5003.96750254,N,01955.22821807,E,1,21,0.6,229.497,M,41.998,M,,*61

$GPGGA,120754.00,5003.96750246,N,01955.22821837,E,1,21,0.6,229.500,M,41.998,M,,*69

$GPGGA,120755.00,5003.96750317,N,01955.22821791,E,1,21,0.6,229.503,M,41.998,M,,*6D

$GPGGA,120756.00,5003.96750004,N,01955.22821547,E,1,21,0.6,229.507,M,41.998,M,,*62

$GPGGA,120757.00,5003.96749945,N,01955.22821402,E,1,21,0.6,229.514,M,41.998,M,,*65

$GPGGA,120758.00,5003.96750045,N,01955.22821019,E,1,21,0.6,229.517,M,41.998,M,,*66

$GPGGA,120759.00,5003.96750245,N,01955.22820823,E,1,21,0.6,229.523,M,41.998,M,,*62

$GPGGA,120800.00,5003.96750262,N,01955.22820925,E,1,21,0.6,229.528,M,41.998,M,,*68

$GPGGA,120801.00,5003.96750385,N,01955.22821198,E,1,21,0.6,229.530,M,41.998,M,,*67

$GPGGA,120802.00,5003.96750461,N,01955.22821183,E,1,21,0.6,229.533,M,41.998,M,,*60

$GPGGA,120803.00,5003.96750474,N,01955.22821389,E,1,21,0.6,229.537,M,41.998,M,,*69

$GPGGA,120804.00,5003.96750495,N,01955.22820957,E,1,21,0.6,229.530,M,41.998,M,,*6E

$GPGGA,120805.00,5003.96750345,N,01955.22820794,E,1,21,0.6,229.528,M,41.998,M,,*6D

$GPGGA,120806.00,5003.96749916,N,01955.22820669,E,1,21,0.6,229.520,M,41.998,M,,*61

$GPGGA,120807.00,5003.96749725,N,01955.22820824,E,1,21,0.6,229.516,M,41.998,M,,*6C

$GPGGA,120808.00,5003.96749563,N,01955.22820956,E,1,21,0.6,229.515,M,41.998,M,,*64

$GPGGA,120809.00,5003.96749642,N,01955.22821107,E,1,21,0.6,229.517,M,41.998,M,,*6A

$GPGGA,120810.00,5003.96749685,N,01955.22820665,E,1,21,0.6,229.514,M,41.998,M,,*68

$GPGGA,120811.00,5003.96749931,N,01955.22820700,E,1,21,0.6,229.508,M,41.998,M,,*66

$GPGGA,120812.00,5003.96749910,N,01955.22820596,E,1,21,0.6,229.505,M,41.998,M,,*66

$GPGGA,120813.00,5003.96749954,N,01955.22820791,E,1,21,0.6,229.497,M,41.998,M,,*68

$GPGGA,120814.00,5003.96749502,N,01955.22819169,E,1,21,0.6,229.448,M,41.998,M,,*69

$GPGGA,120815.00,5003.96749451,N,01955.22819535,E,1,21,0.6,229.446,M,41.998,M,,*6C

$GPGGA,120816.00,5003.96749168,N,01955.22821002,E,1,21,0.6,229.479,M,41.998,M,,*66

$GPGGA,120817.00,5003.96748679,N,01955.22818631,E,1,21,0.6,229.420,M,41.998,M,,*61

$GPGGA,120818.00,5003.96748535,N,01955.22818827,E,1,21,0.6,229.420,M,41.998,M,,*6C

$GPGGA,120819.00,5003.96748359,N,01955.22818748,E,1,21,0.6,229.398,M,41.998,M,,*63

$GPGGA,120820.00,5003.96748057,N,01955.22818918,E,1,21,0.6,229.380,M,41.998,M,,*66

$GPGGA,120821.00,5003.96748017,N,01955.22819334,E,1,21,0.6,229.375,M,41.998,M,,*6C

$GPGGA,120822.00,5003.96747977,N,01955.22819316,E,1,21,0.6,229.361,M,41.998,M,,*6A

$GPGGA,120823.00,5003.96748289,N,01955.22820300,E,1,21,0.6,229.383,M,41.998,M,,*6F

$GPGGA,120824.00,5003.96748070,N,01955.22820408,E,1,21,0.6,229.373,M,41.998,M,,*6C

$GPGGA,120825.00,5003.96748323,N,01955.22820726,E,1,21,0.6,229.377,M,41.998,M,,*63

$GPGGA,120826.00,5003.96748502,N,01955.22819567,E,1,21,0.6,229.352,M,41.998,M,,*6F

$GPGGA,120827.00,5003.96748634,N,01955.22819317,E,1,21,0.6,229.352,M,41.998,M,,*69

$GPGGA,120828.00,5003.96748538,N,01955.22819156,E,1,21,0.6,229.340,M,41.998,M,,*6D

$GPGGA,120829.00,5003.96748764,N,01955.22819544,E,1,21,0.6,229.338,M,41.998,M,,*6F

$GPGGA,120830.00,5003.96748544,N,01955.22819997,E,1,21,0.6,229.352,M,41.998,M,,*69

$GPGGA,120831.00,5003.96748412,N,01955.22821793,E,1,21,0.6,229.386,M,41.998,M,,*62

$GPGGA,120832.00,5003.96748186,N,01955.22820032,E,1,21,0.6,229.340,M,41.998,M,,*6E

$GPGGA,120833.00,5003.96748206,N,01955.22820096,E,1,21,0.6,229.340,M,41.998,M,,*6A

$GPGGA,120834.00,5003.96747880,N,01955.22820206,E,1,21,0.6,229.333,M,41.998,M,,*69

$GPGGA,120835.00,5003.96747739,N,01955.22820291,E,1,21,0.6,229.332,M,41.998,M,,*6A

$GPGGA,120836.00,5003.96747936,N,01955.22821626,E,1,21,0.6,229.383,M,41.998,M,,*6B

$GPGGA,120837.00,5003.96748302,N,01955.22820092,E,1,21,0.6,229.356,M,41.998,M,,*68

$GPGGA,120838.00,5003.96748270,N,01955.22819304,E,1,21,0.6,229.325,M,41.998,M,,*61

$GPGGA,120839.00,5003.96748554,N,01955.22820198,E,1,21,0.6,229.345,M,41.998,M,,*6A

$GPGGA,120840.00,5003.96748622,N,01955.22821916,E,1,21,0.6,229.391,M,41.998,M,,*60

$GPGGA,120841.00,5003.96748626,N,01955.22820266,E,1,21,0.6,229.355,M,41.998,M,,*60

$GPGGA,120842.00,5003.96749003,N,01955.22821749,E,1,21,0.6,229.415,M,41.998,M,,*69

$GPGGA,120843.00,5003.96749500,N,01955.22821651,E,1,21,0.6,229.424,M,41.998,M,,*64

$GPGGA,120844.00,5003.96749571,N,01955.22821789,E,1,21,0.6,229.429,M,41.998,M,,*6C

$GPZDA,120844.016,06,03,2014,00,00*58

$GPGGA,120845.00,5003.96749647,N,01955.22821554,E,1,21,0.6,229.436,M,41.998,M,,*67

$GPGGA,120846.00,5003.96749579,N,01955.22821578,E,1,21,0.6,229.438,M,41.998,M,,*6A

$GPGGA,120847.00,5003.96749568,N,01955.22821294,E,1,21,0.6,229.440,M,41.998,M,,*61

$GPGGA,120848.00,5003.96749417,N,01955.22820900,E,1,21,0.6,229.439,M,41.998,M,,*6E

$GPGGA,120849.00,5003.96749592,N,01955.22820950,E,1,21,0.6,229.440,M,41.998,M,,*68

$GPGGA,120850.00,5003.96749208,N,01955.22821022,E,1,21,0.6,229.425,M,41.998,M,,*6A

$GPGGA,120851.00,5003.96749454,N,01955.22820985,E,1,21,0.6,229.430,M,41.998,M,,*65

$GPGGA,120852.00,5003.96749269,N,01955.22820704,E,1,21,0.6,229.421,M,41.998,M,,*69

$GPGGA,120853.00,5003.96749212,N,01955.22820286,E,1,21,0.6,229.416,M,41.998,M,,*6F

$GPGGA,120854.00,5003.96749370,N,01955.22820315,E,1,21,0.6,229.414,M,41.998,M,,*64

$GPGGA,120855.00,5003.96749522,N,01955.22820180,E,1,21,0.6,229.420,M,41.998,M,,*6D

$GPGGA,120856.00,5003.96749716,N,01955.22820508,E,1,21,0.6,229.417,M,41.998,M,,*6B

$GPGGA,120857.00,5003.96749506,N,01955.22821030,E,1,21,0.6,229.415,M,41.998,M,,*64

$GPGGA,120858.00,5003.96749317,N,01955.22821131,E,1,21,0.6,229.410,M,41.998,M,,*68

$GPGGA,120859.00,5003.96749242,N,01955.22821596,E,1,21,0.6,229.413,M,41.998,M,,*62

$GPGGA,120900.00,5003.96749232,N,01955.22821574,E,1,21,0.6,229.421,M,41.998,M,,*65

$GPGGA,120901.00,5003.96749512,N,01955.22821685,E,1,21,0.6,229.434,M,41.998,M,,*68

$GPGGA,120902.00,5003.96749362,N,01955.22821865,E,1,21,0.6,229.433,M,41.998,M,,*6D

$GPGGA,120903.00,5003.96749265,N,01955.22822408,E,1,21,0.6,229.429,M,41.998,M,,*65

$GPGGA,120904.00,5003.96749230,N,01955.22822784,E,1,21,0.6,229.432,M,41.998,M,,*6F

$GPGGA,120905.00,5003.96749281,N,01955.22820205,E,1,21,0.6,229.384,M,41.998,M,,*60

$GPGGA,120906.00,5003.96749245,N,01955.22821087,E,1,21,0.6,229.394,M,41.998,M,,*63

$GPGGA,120907.00,5003.96749526,N,01955.22821214,E,1,21,0.6,229.400,M,41.998,M,,*62

$GPGGA,120908.00,5003.96749573,N,01955.22821110,E,1,21,0.6,229.404,M,41.998,M,,*6E

$GPGGA,120909.00,5003.96749952,N,01955.22821574,E,1,21,0.6,229.433,M,41.998,M,,*62

$GPGGA,120910.00,5003.96749932,N,01955.22821102,E,1,21,0.6,229.417,M,41.998,M,,*6F

$GPGGA,120911.00,5003.96750000,N,01955.22821243,E,1,21,0.6,229.425,M,41.998,M,,*69

$GPGGA,120912.00,5003.96749892,N,01955.22821808,E,1,21,0.6,229.433,M,41.998,M,,*63

$GPGGA,120913.00,5003.96750115,N,01955.22822394,E,1,21,0.6,229.453,M,41.998,M,,*67

$GPGGA,120914.00,5003.96750197,N,01955.22821871,E,1,21,0.6,229.442,M,41.998,M,,*69

$GPGGA,120915.00,5003.96750128,N,01955.22822616,E,1,21,0.6,229.467,M,41.998,M,,*67

$GPGGA,120916.00,5003.96749722,N,01955.22821484,E,1,21,0.6,229.439,M,41.998,M,,*61

$GPGGA,120917.00,5003.96749815,N,01955.22821322,E,1,21,0.6,229.450,M,41.998,M,,*6F

$GPGGA,120918.00,5003.96749943,N,01955.22823970,E,1,21,0.6,229.520,M,41.998,M,,*6B

$GPGGA,120919.00,5003.96750307,N,01955.22824120,E,1,21,0.6,229.530,M,41.998,M,,*63

$GPGGA,120920.00,5003.96749907,N,01955.22823937,E,1,21,0.6,229.534,M,41.998,M,,*66

$GPGGA,120921.00,5003.96749989,N,01955.22821106,E,1,21,0.6,229.486,M,41.998,M,,*61

$GPGGA,120922.00,5003.96750125,N,01955.22821304,E,1,21,0.6,229.500,M,41.998,M,,*6B

$GPGGA,120923.00,5003.96750498,N,01955.22822834,E,1,21,0.6,229.557,M,41.998,M,,*60

$GPGGA,120924.00,5003.96750620,N,01955.22822773,E,1,21,0.6,229.552,M,41.998,M,,*6F

$GPGGA,120925.00,5003.96750633,N,01955.22822918,E,1,21,0.6,229.559,M,41.998,M,,*64

$GPGGA,120926.00,5003.96750715,N,01955.22822904,E,1,21,0.6,229.556,M,41.998,M,,*60

$GPGGA,120927.00,5003.96750804,N,01955.22822897,E,1,21,0.6,229.560,M,41.998,M,,*60

$GPGGA,120928.00,5003.96750783,N,01955.22822446,E,1,21,0.6,229.550,M,41.998,M,,*6C

$GPGGA,120929.00,5003.96750889,N,01955.22822136,E,1,21,0.6,229.558,M,41.998,M,,*62

$GPGGA,120930.00,5003.96750891,N,01955.22822165,E,1,21,0.6,229.548,M,41.998,M,,*64

$GPGGA,120931.00,5003.96751002,N,01955.22822124,E,1,21,0.6,229.550,M,41.998,M,,*6A

$GPGGA,120932.00,5003.96751089,N,01955.22822016,E,1,21,0.6,229.546,M,41.998,M,,*6D

$GPGGA,120933.00,5003.96751330,N,01955.22822067,E,1,21,0.6,229.552,M,41.998,M,,*6E

$GPGGA,120934.00,5003.96751459,N,01955.22822517,E,1,21,0.6,229.546,M,41.998,M,,*66

$GPGGA,120935.00,5003.96751583,N,01955.22822792,E,1,21,0.6,229.549,M,41.998,M,,*61

$GPGGA,120936.00,5003.96751345,N,01955.22823121,E,1,21,0.6,229.547,M,41.998,M,,*6F

$GPGGA,120937.00,5003.96751788,N,01955.22823243,E,1,21,0.6,229.556,M,41.998,M,,*6C

$GPGGA,120938.00,5003.96752044,N,01955.22822969,E,1,21,0.6,229.552,M,41.998,M,,*61

$GPGGA,120939.00,5003.96752196,N,01955.22822985,E,1,21,0.6,229.552,M,41.998,M,,*6C

$GPGGA,120940.00,5003.96751989,N,01955.22823330,E,1,21,0.6,229.538,M,41.998,M,,*6E

$GPGGA,120941.00,5003.96752071,N,01955.22823748,E,1,21,0.6,229.544,M,41.998,M,,*62

$GPGGA,120942.00,5003.96752161,N,01955.22824266,E,1,21,0.6,229.539,M,41.998,M,,*65

$GPGGA,120943.00,5003.96752137,N,01955.22822399,E,1,21,0.6,229.494,M,41.998,M,,*66

$GPGGA,120944.00,5003.96752356,N,01955.22822583,E,1,21,0.6,229.505,M,41.998,M,,*60

$GPZDA,120944.015,06,03,2014,00,00*5A

$GPGGA,120945.00,5003.96752501,N,01955.22822735,E,1,21,0.6,229.508,M,41.998,M,,*67

$GPGGA,120946.00,5003.96752217,N,01955.22821910,E,1,21,0.6,229.480,M,41.998,M,,*6F

$GPGGA,120947.00,5003.96752468,N,01955.22822527,E,1,21,0.6,229.503,M,41.998,M,,*61

$GPGGA,120948.00,5003.96752581,N,01955.22822167,E,1,21,0.6,229.494,M,41.998,M,,*67

$GPGGA,120949.00,5003.96753109,N,01955.22824999,E,1,21,0.6,229.581,M,41.998,M,,*69

$GPGGA,120950.00,5003.96753072,N,01955.22825087,E,1,21,0.6,229.590,M,41.998,M,,*6B

$GPGGA,120951.00,5003.96753248,N,01955.22823671,E,1,21,0.6,229.563,M,41.998,M,,*64

$GPGGA,120952.00,5003.96753359,N,01955.22823883,E,1,21,0.6,229.568,M,41.998,M,,*6E

$GPGGA,120953.00,5003.96753666,N,01955.22822892,E,1,21,0.6,229.562,M,41.998,M,,*6D

$GPGGA,120954.00,5003.96753620,N,01955.22822333,E,1,21,0.6,229.551,M,41.998,M,,*68

$GPGGA,120955.00,5003.96753841,N,01955.22823565,E,1,21,0.6,229.591,M,41.998,M,,*68

$GPGGA,120956.00,5003.96753841,N,01955.22825162,E,1,21,0.6,229.629,M,41.998,M,,*6E

$GPGGA,120957.00,5003.96754064,N,01955.22825077,E,1,21,0.6,229.638,M,41.998,M,,*62

$GPGGA,120958.00,5003.96754148,N,01955.22825024,E,1,21,0.6,229.638,M,41.998,M,,*64

$GPGGA,120959.00,5003.96753850,N,01955.22823576,E,1,21,0.6,229.597,M,41.998,M,,*60

$GPGGA,121000.00,5003.96753697,N,01955.22824265,E,1,21,0.6,229.601,M,41.998,M,,*6F

$GPGGA,121001.00,5003.96753423,N,01955.22823842,E,1,21,0.6,229.576,M,41.998,M,,*68

$GPGGA,121002.00,5003.96753168,N,01955.22824077,E,1,21,0.6,229.558,M,41.998,M,,*64

$GPGGA,121003.00,5003.96753063,N,01955.22824942,E,1,21,0.6,229.565,M,41.998,M,,*6E

$GPGGA,121004.00,5003.96752478,N,01955.22824191,E,1,21,0.6,229.528,M,41.998,M,,*69

$GPGGA,121005.00,5003.96752475,N,01955.22824633,E,1,21,0.6,229.525,M,41.998,M,,*67

$GPGGA,121006.00,5003.96752564,N,01955.22824674,E,1,21,0.6,229.525,M,41.998,M,,*66

$GPGGA,121007.00,5003.96752694,N,01955.22824386,E,1,21,0.6,229.520,M,41.998,M,,*66

$GPGGA,121008.00,5003.96752258,N,01955.22824554,E,1,21,0.6,229.511,M,41.998,M,,*66

$GPGGA,121009.00,5003.96752318,N,01955.22824329,E,1,21,0.6,229.508,M,41.998,M,,*66

$GPGGA,121010.00,5003.96751870,N,01955.22821624,E,1,21,0.6,229.438,M,41.998,M,,*67

$GPGGA,121011.00,5003.96752227,N,01955.22823000,E,1,21,0.6,229.499,M,41.998,M,,*64

$GPGGA,121012.00,5003.96752278,N,01955.22822651,E,1,21,0.6,229.493,M,41.998,M,,*64

$GPGGA,121013.00,5003.96752539,N,01955.22821619,E,1,21,0.6,229.493,M,41.998,M,,*68

$GPGGA,121014.00,5003.96752892,N,01955.22822413,E,1,21,0.6,229.522,M,41.998,M,,*63

$GPGGA,121015.00,5003.96752922,N,01955.22822381,E,1,21,0.6,229.528,M,41.998,M,,*6E

$GPGGA,121016.00,5003.96753317,N,01955.22822042,E,1,21,0.6,229.523,M,41.998,M,,*67

$GPGGA,121017.00,5003.96753809,N,01955.22821264,E,1,21,0.6,229.528,M,41.998,M,,*6C

$GPGGA,121018.00,5003.96754100,N,01955.22820484,E,1,21,0.6,229.518,M,41.998,M,,*6E

$GPGGA,121019.00,5003.96754395,N,01955.22820716,E,1,21,0.6,229.545,M,41.998,M,,*61

$GPGGA,121020.00,5003.96754793,N,01955.22821042,E,1,21,0.6,229.562,M,41.998,M,,*6B

$GPGGA,121021.00,5003.96755228,N,01955.22821466,E,1,21,0.6,229.591,M,41.998,M,,*60

$GPGGA,121022.00,5003.96755283,N,01955.22821062,E,1,21,0.6,229.584,M,41.998,M,,*66

$GPGGA,121023.00,5003.96755765,N,01955.22820182,E,1,21,0.6,229.572,M,41.998,M,,*6D

$GPGGA,121024.00,5003.96755913,N,01955.22820459,E,1,21,0.6,229.584,M,41.998,M,,*6F

$GPGGA,121025.00,5003.96756421,N,01955.22821069,E,1,21,0.6,229.625,M,41.998,M,,*6F

$GPGGA,121026.00,5003.96756604,N,01955.22820948,E,1,21,0.6,229.622,M,41.998,M,,*65

$GPGGA,121027.00,5003.96756919,N,01955.22820003,E,1,21,0.6,229.617,M,41.998,M,,*67

$GPGGA,121028.00,5003.96757142,N,01955.22819610,E,1,21,0.6,229.615,M,41.998,M,,*63

$GPGGA,121029.00,5003.96757382,N,01955.22818913,E,1,21,0.6,229.608,M,41.998,M,,*6D

$GPGGA,121030.00,5003.96757701,N,01955.22818799,E,1,21,0.6,229.608,M,41.998,M,,*66

$GPGGA,121031.00,5003.96758124,N,01955.22817861,E,1,21,0.6,229.598,M,41.998,M,,*64

$GPGGA,121032.00,5003.96758236,N,01955.22817642,E,1,21,0.6,229.588,M,41.998,M,,*69

$GPGGA,121033.00,5003.96758455,N,01955.22817540,E,1,21,0.6,229.599,M,41.998,M,,*6A

$GPGGA,121034.00,5003.96758274,N,01955.22817894,E,1,21,0.6,229.604,M,41.998,M,,*6B

$GPGGA,121035.00,5003.96758763,N,01955.22817382,E,1,21,0.6,229.603,M,41.998,M,,*62

$GPGGA,121036.00,5003.96759163,N,01955.22817695,E,1,21,0.6,229.617,M,41.998,M,,*60

$GPGGA,121037.00,5003.96759552,N,01955.22817701,E,1,21,0.6,229.635,M,41.998,M,,*6B

$GPGGA,121038.00,5003.96760204,N,01955.22817773,E,1,21,0.6,229.642,M,41.998,M,,*6F

$GPGGA,121039.00,5003.96760785,N,01955.22817921,E,1,21,0.6,229.665,M,41.998,M,,*6E

$GPGGA,121040.00,5003.96760922,N,01955.22818487,E,1,21,0.6,229.684,M,41.998,M,,*62

$GPGGA,121041.00,5003.96761567,N,01955.22817735,E,1,21,0.6,229.685,M,41.998,M,,*6B

$GPGGA,121042.00,5003.96761753,N,01955.22816550,E,1,21,0.6,229.652,M,41.998,M,,*67

$GPGGA,121043.00,5003.96761472,N,01955.22815041,E,1,21,0.6,229.613,M,41.998,M,,*65

$GPGGA,121044.00,5003.96761661,N,01955.22814297,E,1,21,0.6,229.595,M,41.998,M,,*67

$GPZDA,121044.016,06,03,2014,00,00*51

$GPGGA,121045.00,5003.96762153,N,01955.22815801,E,1,21,0.6,229.647,M,41.998,M,,*6B

$GPGGA,121046.00,5003.96762304,N,01955.22816745,E,1,21,0.6,229.657,M,41.998,M,,*65

$GPGGA,121047.00,5003.96762733,N,01955.22816345,E,1,21,0.6,229.650,M,41.998,M,,*67

$GPGGA,121048.00,5003.96762716,N,01955.22815983,E,1,21,0.6,229.640,M,41.998,M,,*6D

$GPGGA,121049.00,5003.96762709,N,01955.22816447,E,1,21,0.6,229.654,M,41.998,M,,*61

$GPGGA,121050.00,5003.96762726,N,01955.22816249,E,1,21,0.6,229.632,M,41.998,M,,*6C

$GPGGA,121051.00,5003.96762862,N,01955.22815873,E,1,21,0.6,229.620,M,41.998,M,,*61

$GPGGA,121052.00,5003.96762845,N,01955.22815799,E,1,21,0.6,229.612,M,41.998,M,,*6D

$GPGGA,121053.00,5003.96763005,N,01955.22815459,E,1,21,0.6,229.613,M,41.998,M,,*6F

$GPGGA,121054.00,5003.96763084,N,01955.22817491,E,1,21,0.6,229.676,M,41.998,M,,*64

$GPGGA,121055.00,5003.96763224,N,01955.22817108,E,1,21,0.6,229.681,M,41.998,M,,*60

$GPGGA,121056.00,5003.96763056,N,01955.22816817,E,1,21,0.6,229.671,M,41.998,M,,*6D

$GPGGA,121057.00,5003.96763859,N,01955.22809741,E,1,22,0.5,229.791,M,41.998,M,,*66

$GPGGA,121058.00,5003.96763879,N,01955.22809797,E,1,22,0.5,229.800,M,41.998,M,,*67

$GPGGA,121059.00,5003.96763826,N,01955.22809152,E,1,22,0.5,229.803,M,41.998,M,,*60

$GPGGA,121100.00,5003.96764148,N,01955.22810397,E,1,22,0.5,229.837,M,41.998,M,,*6F

$GPGGA,121101.00,5003.96763948,N,01955.22808745,E,1,22,0.5,229.824,M,41.998,M,,*61

$GPGGA,121102.00,5003.96763756,N,01955.22809395,E,1,22,0.5,229.846,M,41.998,M,,*6F

$GPGGA,121103.00,5003.96763685,N,01955.22807484,E,1,22,0.5,229.805,M,41.998,M,,*6F

$GPGGA,121104.00,5003.96763588,N,01955.22808285,E,1,22,0.5,229.831,M,41.998,M,,*69

$GPGGA,121105.00,5003.96763593,N,01955.22808525,E,1,22,0.5,229.847,M,41.998,M,,*6E

$GPGGA,121106.00,5003.96763503,N,01955.22807261,E,1,22,0.5,229.825,M,41.998,M,,*68

$GPGGA,121107.00,5003.96763935,N,01955.22806511,E,1,22,0.5,229.837,M,41.998,M,,*62

$GPGGA,121108.00,5003.96763857,N,01955.22807036,E,1,22,0.5,229.851,M,41.998,M,,*69

$GPGGA,121109.00,5003.96764155,N,01955.22806631,E,1,22,0.5,229.859,M,41.998,M,,*6C

$GPGGA,121110.00,5003.96764128,N,01955.22806198,E,1,22,0.5,229.847,M,41.998,M,,*65

$GPGGA,121111.00,5003.96764410,N,01955.22805039,E,1,22,0.5,229.825,M,41.998,M,,*67

$GPGGA,121112.00,5003.96765012,N,01955.22804204,E,1,22,0.5,229.825,M,41.998,M,,*6E

$GPGGA,121113.00,5003.96765392,N,01955.22803882,E,1,22,0.5,229.835,M,41.998,M,,*66

$GPGGA,121114.00,5003.96765730,N,01955.22803523,E,1,22,0.5,229.847,M,41.998,M,,*6E

$GPGGA,121115.00,5003.96766068,N,01955.22802861,E,1,22,0.5,229.848,M,41.998,M,,*63

$GPGGA,121116.00,5003.96766096,N,01955.22801837,E,1,22,0.5,229.830,M,41.998,M,,*6E

$GPGGA,121117.00,5003.96766175,N,01955.22801024,E,1,22,0.5,229.827,M,41.998,M,,*6F

$GPGGA,121118.00,5003.96766184,N,01955.22800204,E,1,22,0.5,229.818,M,41.998,M,,*63

$GPGGA,121119.00,5003.96766290,N,01955.22799711,E,1,22,0.5,229.834,M,41.998,M,,*64

$GPGGA,121120.00,5003.96766295,N,01955.22799277,E,1,22,0.5,229.838,M,41.998,M,,*62

$GPGGA,121121.00,5003.96766391,N,01955.22798183,E,1,22,0.5,229.824,M,41.998,M,,*62

$GPGGA,121122.00,5003.96766382,N,01955.22797561,E,1,22,0.5,229.815,M,41.998,M,,*66

$GPGGA,121123.00,5003.96766542,N,01955.22798089,E,1,22,0.5,229.836,M,41.998,M,,*60

$GPGGA,121124.00,5003.96766235,N,01955.22796894,E,1,22,0.5,229.806,M,41.998,M,,*69

$GPGGA,121125.00,5003.96766312,N,01955.22796587,E,1,22,0.5,229.813,M,41.998,M,,*67

$GPGGA,121126.00,5003.96766105,N,01955.22795527,E,1,22,0.5,229.798,M,41.998,M,,*65

$GPGGA,121127.00,5003.96765979,N,01955.22794952,E,1,22,0.5,229.794,M,41.998,M,,*67

$GPGGA,121128.00,5003.96765658,N,01955.22795254,E,1,22,0.5,229.796,M,41.998,M,,*6A

$GPGGA,121129.00,5003.96765578,N,01955.22794921,E,1,22,0.5,229.816,M,41.998,M,,*65

$GPGGA,121130.00,5003.96765306,N,01955.22794604,E,1,22,0.5,229.811,M,41.998,M,,*6D

$GPGGA,121131.00,5003.96765165,N,01955.22794179,E,1,22,0.5,229.808,M,41.998,M,,*6E

$GPGGA,121132.00,5003.96764742,N,01955.22793810,E,1,22,0.5,229.804,M,41.998,M,,*62

$GPGGA,121133.00,5003.96764839,N,01955.22793452,E,1,22,0.5,229.814,M,41.998,M,,*6B

$GPGGA,121134.00,5003.96764994,N,01955.22794090,E,1,22,0.5,229.834,M,41.998,M,,*65

$GPGGA,121135.00,5003.96765225,N,01955.22794276,E,1,22,0.5,229.856,M,41.998,M,,*6A

$GPGGA,121136.00,5003.96765226,N,01955.22794614,E,1,22,0.5,229.862,M,41.998,M,,*6D

$GPGGA,121137.00,5003.96765342,N,01955.22794427,E,1,22,0.5,229.862,M,41.998,M,,*6D

$GPGGA,121138.00,5003.96765318,N,01955.22794593,E,1,22,0.5,229.860,M,41.998,M,,*61

$GPGGA,121139.00,5003.96765176,N,01955.22795287,E,1,22,0.5,229.883,M,41.998,M,,*64

