$GPGGA,140000.00,5003.96680498,N,01955.22925784,E,1,21,0.6,226.607,M,41.998,M,,*69

$GPGGA,140001.00,5003.96680671,N,01955.22926133,E,1,21,0.6,226.619,M,41.998,M,,*6B

$GPGGA,140002.00,5003.96680430,N,01955.22926301,E,1,21,0.6,226.630,M,41.998,M,,*67

$GPGGA,140003.00,5003.96680463,N,01955.22926526,E,1,21,0.6,226.645,M,41.998,M,,*61

$GPGGA,140004.00,5003.96680732,N,01955.22928588,E,1,21,0.6,226.679,M,41.998,M,,*64

$GPGGA,140005.00,5003.96680644,N,01955.22928737,E,1,21,0.6,226.688,M,41.998,M,,*6D

$GPGGA,140006.00,5003.96680292,N,01955.22929193,E,1,21,0.6,226.704,M,41.998,M,,*6D

$GPGGA,140007.00,5003.96680288,N,01955.22928782,E,1,21,0.6,226.707,M,41.998,M,,*63

$GPGGA,140008.00,5003.96679923,N,01955.22929818,E,1,21,0.6,226.728,M,41.998,M,,*60

$GPGGA,140009.00,5003.96680306,N,01955.22929470,E,1,21,0.6,226.723,M,41.998,M,,*63

$GPGGA,140010.00,5003.96675133,N,01955.22931136,E,1,21,0.6,226.641,M,41.998,M,,*6E

$GPGGA,140011.00,5003.96675064,N,01955.22931329,E,1,21,0.6,226.645,M,41.998,M,,*64

$GPGGA,140012.00,5003.96674877,N,01955.22931847,E,1,21,0.6,226.659,M,41.998,M,,*62

$GPGGA,140013.00,5003.96674527,N,01955.22932237,E,1,21,0.6,226.674,M,41.998,M,,*6A

$GPGGA,140014.00,5003.96674628,N,01955.22931876,E,1,21,0.6,226.668,M,41.998,M,,*60

$GPGGA,140015.00,5003.96674469,N,01955.22932749,E,1,21,0.6,226.691,M,41.998,M,,*60

$GPGGA,140016.00,5003.96674504,N,01955.22933212,E,1,21,0.6,226.714,M,41.998,M,,*6F

$GPGGA,140017.00,5003.96674687,N,01955.22933503,E,1,21,0.6,226.723,M,41.998,M,,*65

$GPGGA,140018.00,5003.96674558,N,01955.22934006,E,1,21,0.6,226.736,M,41.998,M,,*68

$GPGGA,140019.00,5003.96674894,N,01955.22933451,E,1,21,0.6,226.722,M,41.998,M,,*60

$GPGGA,140020.00,5003.96674871,N,01955.22934002,E,1,21,0.6,226.747,M,41.998,M,,*67

$GPGGA,140021.00,5003.96675050,N,01955.22934022,E,1,21,0.6,226.751,M,41.998,M,,*69

$GPGGA,140022.00,5003.96675469,N,01955.22933778,E,1,21,0.6,226.745,M,41.998,M,,*6E

$GPGGA,140023.00,5003.96675389,N,01955.22933539,E,1,21,0.6,226.736,M,41.998,M,,*65

$GPGGA,140024.00,5003.96675280,N,01955.22933877,E,1,21,0.6,226.750,M,41.998,M,,*6D

$GPGGA,140025.00,5003.96675422,N,01955.22933131,E,1,21,0.6,226.734,M,41.998,M,,*6B

$GPGGA,140026.00,5003.96675216,N,01955.22933506,E,1,21,0.6,226.746,M,41.998,M,,*6C

$GPGGA,140027.00,5003.96674880,N,01955.22933551,E,1,21,0.6,226.754,M,41.998,M,,*68

$GPGGA,140028.00,5003.96675052,N,01955.22933390,E,1,21,0.6,226.746,M,41.998,M,,*69

$GPGGA,140029.00,5003.96674938,N,01955.22933350,E,1,21,0.6,226.755,M,41.998,M,,*62

$GPGGA,140030.00,5003.96675125,N,01955.22933103,E,1,21,0.6,226.762,M,41.998,M,,*6F

$GPGGA,140031.00,5003.96675079,N,01955.22933444,E,1,21,0.6,226.788,M,41.998,M,,*64

$GPGGA,140032.00,5003.96675416,N,01955.22932427,E,1,21,0.6,226.759,M,41.998,M,,*62

$GPGGA,140033.00,5003.96675616,N,01955.22932104,E,1,21,0.6,226.761,M,41.998,M,,*6E

$GPGGA,140034.00,5003.96675641,N,01955.22931476,E,1,21,0.6,226.760,M,41.998,M,,*69

$GPGGA,140035.00,5003.96675636,N,01955.22931422,E,1,21,0.6,226.764,M,41.998,M,,*6D

$GPGGA,140036.00,5003.96675812,N,01955.22932118,E,1,21,0.6,226.775,M,41.998,M,,*69

$GPGGA,140037.00,5003.96675695,N,01955.22932048,E,1,21,0.6,226.790,M,41.998,M,,*66

$GPGGA,140038.00,5003.96675964,N,01955.22930767,E,1,21,0.6,226.764,M,41.998,M,,*6B

$GPGGA,140039.00,5003.96675920,N,01955.22930547,E,1,21,0.6,226.762,M,41.998,M,,*6C

$GPGGA,140040.00,5003.96678188,N,01955.22926574,E,1,22,0.6,226.852,M,41.998,M,,*6D

$GPGGA,140041.00,5003.96678003,N,01955.22926816,E,1,22,0.6,226.860,M,41.998,M,,*66

$GPGGA,140042.00,5003.96677731,N,01955.22927517,E,1,22,0.6,226.853,M,41.998,M,,*61

$GPGGA,140043.00,5003.96677764,N,01955.22927547,E,1,22,0.6,226.849,M,41.998,M,,*6E

$GPGGA,140044.00,5003.96677970,N,01955.22927051,E,1,22,0.6,226.831,M,41.998,M,,*6F

$GPZDA,140044.016,06,03,2014,00,00*56

$GPGGA,140045.00,5003.96677962,N,01955.22926990,E,1,22,0.6,226.818,M,41.998,M,,*63

$GPGGA,140046.00,5003.96677598,N,01955.22928060,E,1,22,0.6,226.844,M,41.998,M,,*68

$GPGGA,140047.00,5003.96677977,N,01955.22927497,E,1,22,0.6,226.837,M,41.998,M,,*63

$GPGGA,140048.00,5003.96678355,N,01955.22926276,E,1,22,0.6,226.828,M,41.998,M,,*6F

$GPGGA,140049.00,5003.96678508,N,01955.22926180,E,1,22,0.6,226.832,M,41.998,M,,*61

$GPGGA,140050.00,5003.96678977,N,01955.22925413,E,1,22,0.6,226.816,M,41.998,M,,*67

$GPGGA,140051.00,5003.96679216,N,01955.22925573,E,1,22,0.6,226.815,M,41.998,M,,*6F

$GPGGA,140052.00,5003.96679572,N,01955.22924898,E,1,22,0.6,226.809,M,41.998,M,,*6D

$GPGGA,140053.00,5003.96680067,N,01955.22924062,E,1,22,0.6,226.800,M,41.998,M,,*6F

$GPGGA,140054.00,5003.96680184,N,01955.22923926,E,1,22,0.6,226.799,M,41.998,M,,*65

$GPGGA,140055.00,5003.96679973,N,01955.22923538,E,1,22,0.6,226.805,M,41.998,M,,*6B

$GPGGA,140056.00,5003.96679836,N,01955.22924170,E,1,22,0.6,226.824,M,41.998,M,,*64

$GPGGA,140057.00,5003.96680147,N,01955.22924143,E,1,22,0.6,226.830,M,41.998,M,,*69

$GPGGA,140058.00,5003.96680696,N,01955.22923893,E,1,22,0.6,226.831,M,41.998,M,,*6F

$GPGGA,140059.00,5003.96680828,N,01955.22924008,E,1,22,0.6,226.832,M,41.998,M,,*6B

$GPGGA,140100.00,5003.96681207,N,01955.22923164,E,1,22,0.6,226.812,M,41.998,M,,*6E

$GPGGA,140101.00,5003.96681113,N,01955.22923741,E,1,22,0.6,226.827,M,41.998,M,,*6E

$GPGGA,140102.00,5003.96680944,N,01955.22924676,E,1,22,0.6,226.850,M,41.998,M,,*64

$GPGGA,140103.00,5003.96681093,N,01955.22924769,E,1,22,0.6,226.845,M,41.998,M,,*6C

$GPGGA,140104.00,5003.96681118,N,01955.22925395,E,1,22,0.6,226.864,M,41.998,M,,*6C

$GPGGA,140105.00,5003.96681297,N,01955.22925389,E,1,22,0.6,226.871,M,41.998,M,,*60

$GPGGA,140106.00,5003.96681393,N,01955.22926000,E,1,22,0.6,226.889,M,41.998,M,,*60

$GPGGA,140107.00,5003.96681085,N,01955.22927363,E,1,22,0.6,226.938,M,41.998,M,,*69

$GPGGA,140108.00,5003.96681777,N,01955.22925542,E,1,22,0.6,226.913,M,41.998,M,,*62

$GPGGA,140109.00,5003.96681596,N,01955.22925477,E,1,22,0.6,226.922,M,41.998,M,,*6B

$GPGGA,140110.00,5003.96681463,N,01955.22925607,E,1,22,0.6,226.922,M,41.998,M,,*6D

$GPGGA,140111.00,5003.96681707,N,01955.22924744,E,1,22,0.6,226.906,M,41.998,M,,*6C

$GPGGA,140112.00,5003.96681865,N,01955.22924837,E,1,22,0.6,226.912,M,41.998,M,,*6A

$GPGGA,140113.00,5003.96681554,N,01955.22924714,E,1,22,0.6,226.915,M,41.998,M,,*6D

$GPGGA,140114.00,5003.96681662,N,01955.22924426,E,1,22,0.6,226.922,M,41.998,M,,*6A

$GPGGA,140115.00,5003.96681615,N,01955.22923718,E,1,22,0.6,226.919,M,41.998,M,,*6A

$GPGGA,140116.00,5003.96681856,N,01955.22922556,E,1,22,0.6,226.903,M,41.998,M,,*62

$GPGGA,140117.00,5003.96682012,N,01955.22922043,E,1,22,0.6,226.893,M,41.998,M,,*61

$GPGGA,140118.00,5003.96682122,N,01955.22921648,E,1,22,0.6,226.885,M,41.998,M,,*65

$GPGGA,140119.00,5003.96682241,N,01955.22921441,E,1,22,0.6,226.881,M,41.998,M,,*6D

$GPGGA,140120.00,5003.96682172,N,01955.22920840,E,1,22,0.6,226.861,M,41.998,M,,*66

$GPGGA,140121.00,5003.96681753,N,01955.22920258,E,1,22,0.6,226.857,M,41.998,M,,*67

$GPGGA,140122.00,5003.96681474,N,01955.22919917,E,1,22,0.6,226.856,M,41.998,M,,*69

$GPGGA,140123.00,5003.96681588,N,01955.22918751,E,1,22,0.6,226.829,M,41.998,M,,*6F

$GPGGA,140124.00,5003.96681847,N,01955.22918596,E,1,22,0.6,226.831,M,41.998,M,,*66

$GPGGA,140125.00,5003.96681967,N,01955.22918770,E,1,22,0.6,226.840,M,41.998,M,,*68

$GPGGA,140126.00,5003.96682251,N,01955.22918663,E,1,22,0.6,226.846,M,41.998,M,,*63

$GPGGA,140127.00,5003.96682275,N,01955.22918488,E,1,22,0.6,226.836,M,41.998,M,,*64

$GPGGA,140128.00,5003.96682267,N,01955.22919184,E,1,22,0.6,226.844,M,41.998,M,,*65

$GPGGA,140129.00,5003.96682194,N,01955.22920333,E,1,22,0.6,226.863,M,41.998,M,,*6A

$GPGGA,140130.00,5003.96682591,N,01955.22919566,E,1,22,0.6,226.852,M,41.998,M,,*6D

$GPGGA,140131.00,5003.96682444,N,01955.22919641,E,1,22,0.6,226.857,M,41.998,M,,*66

$GPGGA,140132.00,5003.96682437,N,01955.22919901,E,1,22,0.6,226.865,M,41.998,M,,*6B

$GPGGA,140133.00,5003.96682380,N,01955.22919824,E,1,22,0.6,226.855,M,41.998,M,,*64

$GPGGA,140134.00,5003.96682278,N,01955.22920108,E,1,22,0.6,226.865,M,41.998,M,,*6B

$GPGGA,140135.00,5003.96681942,N,01955.22920697,E,1,22,0.6,226.886,M,41.998,M,,*67

$GPGGA,140136.00,5003.96681631,N,01955.22921708,E,1,22,0.6,226.908,M,41.998,M,,*6E

$GPGGA,140137.00,5003.96681630,N,01955.22922040,E,1,22,0.6,226.928,M,41.998,M,,*64

$GPGGA,140138.00,5003.96681672,N,01955.22922210,E,1,22,0.6,226.942,M,41.998,M,,*66

$GPGGA,140139.00,5003.96681889,N,01955.22921437,E,1,22,0.6,226.936,M,41.998,M,,*6E

$GPGGA,140140.00,5003.96681941,N,01955.22922037,E,1,22,0.6,226.961,M,41.998,M,,*60

$GPGGA,140141.00,5003.96681850,N,01955.22921805,E,1,22,0.6,226.969,M,41.998,M,,*62

$GPGGA,140142.00,5003.96681662,N,01955.22921569,E,1,22,0.6,226.957,M,41.998,M,,*64

$GPGGA,140143.00,5003.96682065,N,01955.22920297,E,1,22,0.6,226.926,M,41.998,M,,*66

$GPGGA,140144.00,5003.96682131,N,01955.22920334,E,1,22,0.6,226.926,M,41.998,M,,*69

$GPZDA,140144.016,06,03,2014,00,00*57

$GPGGA,140145.00,5003.96682402,N,01955.22920074,E,1,22,0.6,226.918,M,41.998,M,,*67

$GPGGA,140146.00,5003.96682130,N,01955.22920701,E,1,22,0.6,226.928,M,41.998,M,,*66

$GPGGA,140147.00,5003.96682912,N,01955.22919368,E,1,22,0.6,226.895,M,41.998,M,,*69

$GPGGA,140148.00,5003.96682755,N,01955.22919918,E,1,22,0.6,226.902,M,41.998,M,,*69

$GPGGA,140149.00,5003.96682484,N,01955.22920876,E,1,22,0.6,226.913,M,41.998,M,,*64

$GPGGA,140150.00,5003.96682398,N,01955.22920905,E,1,22,0.6,226.919,M,41.998,M,,*69

$GPGGA,140151.00,5003.96682404,N,01955.22921379,E,1,22,0.6,226.916,M,41.998,M,,*65

$GPGGA,140152.00,5003.96682471,N,01955.22921981,E,1,22,0.6,226.921,M,41.998,M,,*6D

$GPGGA,140153.00,5003.96682256,N,01955.22921843,E,1,22,0.6,226.922,M,41.998,M,,*63

$GPGGA,140154.00,5003.96682670,N,01955.22920807,E,1,22,0.6,226.887,M,41.998,M,,*6B

$GPGGA,140155.00,5003.96682988,N,01955.22919939,E,1,22,0.6,226.858,M,41.998,M,,*66

$GPGGA,140156.00,5003.96682933,N,01955.22919780,E,1,22,0.6,226.854,M,41.998,M,,*65

$GPGGA,140157.00,5003.96682844,N,01955.22919494,E,1,22,0.6,226.851,M,41.998,M,,*66

$GPGGA,140158.00,5003.96682499,N,01955.22919339,E,1,22,0.6,226.856,M,41.998,M,,*62

$GPGGA,140159.00,5003.96682328,N,01955.22918995,E,1,22,0.6,226.839,M,41.998,M,,*6A

$GPGGA,140200.00,5003.96682484,N,01955.22919349,E,1,22,0.6,226.842,M,41.998,M,,*62

$GPGGA,140201.00,5003.96685074,N,01955.22910458,E,1,22,0.6,226.644,M,41.998,M,,*69

$GPGGA,140202.00,5003.96685319,N,01955.22909721,E,1,22,0.6,226.626,M,41.998,M,,*63

$GPGGA,140203.00,5003.96685430,N,01955.22910769,E,1,22,0.6,226.627,M,41.998,M,,*6B

$GPGGA,140204.00,5003.96684855,N,01955.22910818,E,1,22,0.6,226.632,M,41.998,M,,*6F

$GPGGA,140205.00,5003.96684317,N,01955.22910998,E,1,22,0.6,226.634,M,41.998,M,,*6C

$GPGGA,140206.00,5003.96683980,N,01955.22911806,E,1,22,0.6,226.637,M,41.998,M,,*68

$GPGGA,140207.00,5003.96683556,N,01955.22911936,E,1,22,0.6,226.635,M,41.998,M,,*6E

$GPGGA,140208.00,5003.96683351,N,01955.22911872,E,1,22,0.6,226.619,M,41.998,M,,*6F

$GPGGA,140209.00,5003.96683096,N,01955.22912346,E,1,22,0.6,226.609,M,41.998,M,,*68

$GPGGA,140210.00,5003.96683061,N,01955.22911268,E,1,22,0.6,226.589,M,41.998,M,,*6D

$GPGGA,140211.00,5003.96682696,N,01955.22911353,E,1,22,0.6,226.592,M,41.998,M,,*60

$GPGGA,140212.00,5003.96682366,N,01955.22911846,E,1,22,0.6,226.595,M,41.998,M,,*61

$GPGGA,140213.00,5003.96682183,N,01955.22911617,E,1,22,0.6,226.582,M,41.998,M,,*65

$GPGGA,140214.00,5003.96681786,N,01955.22911901,E,1,22,0.6,226.575,M,41.998,M,,*62

$GPGGA,140215.00,5003.96681697,N,01955.22911629,E,1,22,0.6,226.571,M,41.998,M,,*63

$GPGGA,140216.00,5003.96681538,N,01955.22911854,E,1,22,0.6,226.575,M,41.998,M,,*66

$GPGGA,140217.00,5003.96681193,N,01955.22912626,E,1,22,0.6,226.587,M,41.998,M,,*67

$GPGGA,140218.00,5003.96680880,N,01955.22913386,E,1,22,0.6,226.597,M,41.998,M,,*6D

$GPGGA,140219.00,5003.96680706,N,01955.22913657,E,1,22,0.6,226.600,M,41.998,M,,*69

$GPGGA,140220.00,5003.96680674,N,01955.22913445,E,1,22,0.6,226.596,M,41.998,M,,*6A

$GPGGA,140221.00,5003.96675066,N,01955.22930517,E,1,22,0.6,226.966,M,41.998,M,,*60

$GPGGA,140222.00,5003.96675108,N,01955.22929594,E,1,22,0.6,226.950,M,41.998,M,,*6C

$GPGGA,140223.00,5003.96675601,N,01955.22927230,E,1,22,0.6,226.905,M,41.998,M,,*64

$GPGGA,140224.00,5003.96674895,N,01955.22928839,E,1,22,0.6,226.937,M,41.998,M,,*6C

$GPGGA,140225.00,5003.96674932,N,01955.22928275,E,1,22,0.6,226.922,M,41.998,M,,*67

$GPGGA,140226.00,5003.96674927,N,01955.22928374,E,1,22,0.6,226.926,M,41.998,M,,*64

$GPGGA,140227.00,5003.96674746,N,01955.22928013,E,1,22,0.6,226.925,M,41.998,M,,*6D

$GPGGA,140228.00,5003.96674911,N,01955.22927426,E,1,22,0.6,226.914,M,41.998,M,,*61

$GPGGA,140229.00,5003.96675517,N,01955.22925974,E,1,22,0.6,226.890,M,41.998,M,,*6E

$GPGGA,140230.00,5003.96675335,N,01955.22925971,E,1,22,0.6,226.902,M,41.998,M,,*6F

$GPGGA,140231.00,5003.96674921,N,01955.22926312,E,1,22,0.6,226.918,M,41.998,M,,*67

$GPGGA,140232.00,5003.96674989,N,01955.22925755,E,1,22,0.6,226.910,M,41.998,M,,*6A

$GPGGA,140233.00,5003.96674674,N,01955.22926470,E,1,22,0.6,226.930,M,41.998,M,,*63

$GPGGA,140234.00,5003.96674629,N,01955.22926419,E,1,22,0.6,226.940,M,41.998,M,,*64

$GPGGA,140235.00,5003.96674487,N,01955.22925187,E,1,22,0.6,226.912,M,41.998,M,,*65

$GPGGA,140236.00,5003.96674280,N,01955.22925347,E,1,22,0.6,226.911,M,41.998,M,,*6A

$GPGGA,140237.00,5003.96673936,N,01955.22925416,E,1,22,0.6,226.907,M,41.998,M,,*6E

$GPGGA,140238.00,5003.96673932,N,01955.22925328,E,1,22,0.6,226.908,M,41.998,M,,*60

$GPGGA,140239.00,5003.96673973,N,01955.22924358,E,1,22,0.6,226.890,M,41.998,M,,*62

$GPGGA,140240.00,5003.96673636,N,01955.22925183,E,1,22,0.6,226.907,M,41.998,M,,*68

$GPGGA,140241.00,5003.96673345,N,01955.22925090,E,1,22,0.6,226.903,M,41.998,M,,*6F

$GPGGA,140242.00,5003.96673659,N,01955.22923917,E,1,22,0.6,226.872,M,41.998,M,,*63

$GPGGA,140243.00,5003.96672950,N,01955.22925037,E,1,22,0.6,226.899,M,41.998,M,,*6D

$GPGGA,140244.00,5003.96672329,N,01955.22925333,E,1,22,0.6,226.909,M,41.998,M,,*61

$GPZDA,140244.016,06,03,2014,00,00*54

$GPGGA,140245.00,5003.96672050,N,01955.22924081,E,1,22,0.6,226.890,M,41.998,M,,*67

$GPGGA,140246.00,5003.96671906,N,01955.22924281,E,1,22,0.6,226.896,M,41.998,M,,*69

$GPGGA,140247.00,5003.96671589,N,01955.22923804,E,1,22,0.6,226.888,M,41.998,M,,*6C

$GPGGA,140248.00,5003.96671023,N,01955.22924751,E,1,22,0.6,226.906,M,41.998,M,,*69

$GPGGA,140249.00,5003.96670352,N,01955.22926243,E,1,22,0.6,226.922,M,41.998,M,,*6E

$GPGGA,140250.00,5003.96670103,N,01955.22926481,E,1,22,0.6,226.927,M,41.998,M,,*6D

$GPGGA,140251.00,5003.96669505,N,01955.22926958,E,1,22,0.6,226.929,M,41.998,M,,*61

$GPGGA,140252.00,5003.96669980,N,01955.22924571,E,1,22,0.6,226.878,M,41.998,M,,*63

$GPGGA,140253.00,5003.96669319,N,01955.22925897,E,1,22,0.6,226.899,M,41.998,M,,*63

$GPGGA,140254.00,5003.96669685,N,01955.22925157,E,1,22,0.6,226.879,M,41.998,M,,*6F

$GPGGA,140255.00,5003.96669622,N,01955.22924658,E,1,22,0.6,226.860,M,41.998,M,,*62

$GPGGA,140256.00,5003.96669665,N,01955.22924535,E,1,22,0.6,226.849,M,41.998,M,,*61

$GPGGA,140257.00,5003.96669027,N,01955.22925353,E,1,22,0.6,226.857,M,41.998,M,,*68

$GPGGA,140258.00,5003.96669150,N,01955.22924177,E,1,22,0.6,226.821,M,41.998,M,,*62

$GPGGA,140259.00,5003.96668988,N,01955.22923663,E,1,22,0.6,226.800,M,41.998,M,,*69

$GPGGA,140300.00,5003.96668769,N,01955.22923653,E,1,22,0.6,226.793,M,41.998,M,,*63

$GPGGA,140301.00,5003.96668295,N,01955.22925090,E,1,22,0.6,226.817,M,41.998,M,,*68

$GPGGA,140302.00,5003.96667973,N,01955.22926575,E,1,22,0.6,226.854,M,41.998,M,,*6D

$GPGGA,140303.00,5003.96667710,N,01955.22927280,E,1,22,0.6,226.861,M,41.998,M,,*6D

$GPGGA,140304.00,5003.96667461,N,01955.22927280,E,1,22,0.6,226.866,M,41.998,M,,*68

$GPGGA,140305.00,5003.96667353,N,01955.22927950,E,1,22,0.6,226.860,M,41.998,M,,*6F

$GPGGA,140306.00,5003.96666884,N,01955.22929501,E,1,22,0.6,226.896,M,41.998,M,,*63

$GPGGA,140307.00,5003.96666498,N,01955.22930434,E,1,22,0.6,226.912,M,41.998,M,,*61

$GPGGA,140308.00,5003.96666562,N,01955.22930160,E,1,22,0.6,226.909,M,41.998,M,,*64

$GPGGA,140309.00,5003.96666812,N,01955.22928764,E,1,22,0.6,226.878,M,41.998,M,,*63

$GPGGA,140310.00,5003.96666698,N,01955.22929117,E,1,22,0.6,226.885,M,41.998,M,,*66

$GPGGA,140311.00,5003.96666387,N,01955.22930003,E,1,22,0.6,226.902,M,41.998,M,,*6E

$GPGGA,140312.00,5003.96666121,N,01955.22930828,E,1,22,0.6,226.917,M,41.998,M,,*66

$GPGGA,140313.00,5003.96666117,N,01955.22930850,E,1,22,0.6,226.905,M,41.998,M,,*6E

$GPGGA,140314.00,5003.96666055,N,01955.22930359,E,1,22,0.6,226.887,M,41.998,M,,*67

$GPGGA,140315.00,5003.96665339,N,01955.22932033,E,1,22,0.6,226.921,M,41.998,M,,*6C

$GPGGA,140316.00,5003.96665716,N,01955.22930481,E,1,22,0.6,226.886,M,41.998,M,,*65

$GPGGA,140317.00,5003.96665413,N,01955.22930980,E,1,22,0.6,226.894,M,41.998,M,,*6D

$GPGGA,140318.00,5003.96665087,N,01955.22931884,E,1,22,0.6,226.908,M,41.998,M,,*6B

$GPGGA,140319.00,5003.96665429,N,01955.22930708,E,1,22,0.6,226.878,M,41.998,M,,*66

$GPGGA,140320.00,5003.96665497,N,01955.22930079,E,1,22,0.6,226.861,M,41.998,M,,*60

$GPGGA,140321.00,5003.96664771,N,01955.22931321,E,1,22,0.6,226.889,M,41.998,M,,*62

$GPGGA,140322.00,5003.96665483,N,01955.22929064,E,1,22,0.6,226.834,M,41.998,M,,*63

$GPGGA,140323.00,5003.96665171,N,01955.22929725,E,1,22,0.6,226.845,M,41.998,M,,*6E

$GPGGA,140324.00,5003.96665173,N,01955.22929872,E,1,22,0.6,226.853,M,41.998,M,,*61

$GPGGA,140325.00,5003.96665150,N,01955.22929824,E,1,22,0.6,226.845,M,41.998,M,,*65

$GPGGA,140326.00,5003.96665145,N,01955.22929560,E,1,22,0.6,226.828,M,41.998,M,,*64

$GPGGA,140327.00,5003.96664932,N,01955.22929737,E,1,22,0.6,226.822,M,41.998,M,,*66

$GPGGA,140328.00,5003.96665028,N,01955.22929462,E,1,22,0.6,226.815,M,41.998,M,,*6D

$GPGGA,140329.00,5003.96665209,N,01955.22928368,E,1,22,0.6,226.785,M,41.998,M,,*67

$GPGGA,140330.00,5003.96665261,N,01955.22928729,E,1,22,0.6,226.798,M,41.998,M,,*6C

$GPGGA,140331.00,5003.96668985,N,01955.22916973,E,1,22,0.6,226.530,M,41.998,M,,*6D

$GPGGA,140332.00,5003.96669634,N,01955.22916080,E,1,22,0.6,226.513,M,41.998,M,,*6E

$GPGGA,140333.00,5003.96669514,N,01955.22915784,E,1,22,0.6,226.490,M,41.998,M,,*64

$GPGGA,140334.00,5003.96669557,N,01955.22915850,E,1,22,0.6,226.491,M,41.998,M,,*63

$GPGGA,140335.00,5003.96669466,N,01955.22916214,E,1,22,0.6,226.476,M,41.998,M,,*61

$GPGGA,140336.00,5003.96669491,N,01955.22916406,E,1,22,0.6,226.465,M,41.998,M,,*6D

$GPGGA,140337.00,5003.96663859,N,01955.22934137,E,1,22,0.6,226.842,M,41.998,M,,*60

$GPGGA,140338.00,5003.96664530,N,01955.22932833,E,1,22,0.6,226.797,M,41.998,M,,*66

$GPGGA,140339.00,5003.96664608,N,01955.22933208,E,1,22,0.6,226.786,M,41.998,M,,*6C

$GPGGA,140340.00,5003.96664657,N,01955.22933491,E,1,22,0.6,226.784,M,41.998,M,,*6C

$GPGGA,140341.00,5003.96664988,N,01955.22933072,E,1,22,0.6,226.765,M,41.998,M,,*66

$GPGGA,140342.00,5003.96665034,N,01955.22934228,E,1,22,0.6,226.777,M,41.998,M,,*63

$GPGGA,140343.00,5003.96664954,N,01955.22934595,E,1,22,0.6,226.785,M,41.998,M,,*60

$GPGGA,140344.00,5003.96665063,N,01955.22935481,E,1,22,0.6,226.792,M,41.998,M,,*68

$GPZDA,140344.016,06,03,2014,00,00*55

$GPGGA,140345.00,5003.96665233,N,01955.22935226,E,1,22,0.6,226.774,M,41.998,M,,*6D

$GPGGA,140346.00,5003.96665537,N,01955.22934300,E,1,22,0.6,226.744,M,41.998,M,,*6A

$GPGGA,140347.00,5003.96665662,N,01955.22935183,E,1,22,0.6,226.754,M,41.998,M,,*61

$GPGGA,140348.00,5003.96665921,N,01955.22934603,E,1,22,0.6,226.749,M,41.998,M,,*64

$GPGGA,140349.00,5003.96665687,N,01955.22934675,E,1,22,0.6,226.750,M,41.998,M,,*6F

$GPGGA,140350.00,5003.96665395,N,01955.22936561,E,1,22,0.6,226.771,M,41.998,M,,*66

$GPGGA,140351.00,5003.96665444,N,01955.22936700,E,1,22,0.6,226.772,M,41.998,M,,*6A

$GPGGA,140352.00,5003.96665696,N,01955.22937204,E,1,22,0.6,226.777,M,41.998,M,,*61

$GPGGA,140353.00,5003.96665392,N,01955.22938555,E,1,22,0.6,226.810,M,41.998,M,,*63

$GPGGA,140354.00,5003.96666041,N,01955.22938948,E,1,22,0.6,226.811,M,41.998,M,,*6B

$GPGGA,140355.00,5003.96666556,N,01955.22937694,E,1,22,0.6,226.785,M,41.998,M,,*6A

$GPGGA,140356.00,5003.96666620,N,01955.22938464,E,1,22,0.6,226.808,M,41.998,M,,*63

$GPGGA,140357.00,5003.96667065,N,01955.22937033,E,1,22,0.6,226.771,M,41.998,M,,*6C

$GPGGA,140358.00,5003.96666727,N,01955.22937576,E,1,22,0.6,226.783,M,41.998,M,,*6A

$GPGGA,140359.00,5003.96666676,N,01955.22937544,E,1,22,0.6,226.788,M,41.998,M,,*64

$GPGGA,140400.00,5003.96666719,N,01955.22937425,E,1,22,0.6,226.779,M,41.998,M,,*6F

$GPGGA,140401.00,5003.96666731,N,01955.22936602,E,1,22,0.6,226.771,M,41.998,M,,*6A

$GPGGA,140402.00,5003.96667019,N,01955.22936520,E,1,22,0.6,226.769,M,41.998,M,,*6F

$GPGGA,140403.00,5003.96666978,N,01955.22936912,E,1,22,0.6,226.769,M,41.998,M,,*6C

$GPGGA,140404.00,5003.96667424,N,01955.22935676,E,1,22,0.6,226.746,M,41.998,M,,*6D

$GPGGA,140405.00,5003.96666975,N,01955.22936560,E,1,22,0.6,226.767,M,41.998,M,,*60

$GPGGA,140406.00,5003.96667381,N,01955.22934818,E,1,22,0.6,226.735,M,41.998,M,,*64

$GPGGA,140407.00,5003.96666990,N,01955.22935191,E,1,22,0.6,226.750,M,41.998,M,,*64

$GPGGA,140408.00,5003.96667233,N,01955.22933380,E,1,22,0.6,226.722,M,41.998,M,,*69

$GPGGA,140409.00,5003.96667865,N,01955.22931585,E,1,22,0.6,226.693,M,41.998,M,,*6B

$GPGGA,140410.00,5003.96667163,N,01955.22932647,E,1,22,0.6,226.720,M,41.998,M,,*6B

$GPGGA,140411.00,5003.96670762,N,01955.22921073,E,1,22,0.6,226.454,M,41.998,M,,*68

$GPGGA,140412.00,5003.96671221,N,01955.22920367,E,1,22,0.6,226.435,M,41.998,M,,*68

$GPGGA,140413.00,5003.96671531,N,01955.22919290,E,1,22,0.6,226.419,M,41.998,M,,*62

$GPGGA,140414.00,5003.96671669,N,01955.22918910,E,1,22,0.6,226.416,M,41.998,M,,*66

$GPGGA,140415.00,5003.96671477,N,01955.22918911,E,1,22,0.6,226.420,M,41.998,M,,*6E

$GPGGA,140416.00,5003.96671215,N,01955.22919014,E,1,22,0.6,226.429,M,41.998,M,,*6B

$GPGGA,140417.00,5003.96671076,N,01955.22919518,E,1,22,0.6,226.440,M,41.998,M,,*6B

$GPGGA,140418.00,5003.96670898,N,01955.22919641,E,1,22,0.6,226.440,M,41.998,M,,*62

$GPGGA,140419.00,5003.96670629,N,01955.22920091,E,1,22,0.6,226.438,M,41.998,M,,*69

$GPGGA,140420.00,5003.96670647,N,01955.22920914,E,1,22,0.6,226.450,M,41.998,M,,*61

$GPGGA,140421.00,5003.96670358,N,01955.22921033,E,1,22,0.6,226.444,M,41.998,M,,*63

$GPGGA,140422.00,5003.96670052,N,01955.22921430,E,1,22,0.6,226.465,M,41.998,M,,*6D

$GPGGA,140423.00,5003.96670024,N,01955.22921131,E,1,22,0.6,226.453,M,41.998,M,,*6C

$GPGGA,140424.00,5003.96669869,N,01955.22921202,E,1,22,0.6,226.468,M,41.998,M,,*69

$GPGGA,140425.00,5003.96669780,N,01955.22921106,E,1,22,0.6,226.475,M,41.998,M,,*6B

$GPGGA,140426.00,5003.96669423,N,01955.22921745,E,1,22,0.6,226.494,M,41.998,M,,*6C

$GPGGA,140427.00,5003.96669175,N,01955.22921372,E,1,22,0.6,226.475,M,41.998,M,,*64

$GPGGA,140428.00,5003.96668725,N,01955.22921691,E,1,22,0.6,226.494,M,41.998,M,,*6E

$GPGGA,140429.00,5003.96668402,N,01955.22921509,E,1,22,0.6,226.493,M,41.998,M,,*6C

$GPGGA,140430.00,5003.96668041,N,01955.22922006,E,1,22,0.6,226.518,M,41.998,M,,*6C

$GPGGA,140431.00,5003.96665870,N,01955.22927356,E,1,22,0.6,226.659,M,41.998,M,,*6F

$GPGGA,140432.00,5003.96668172,N,01955.22920361,E,1,22,0.6,226.518,M,41.998,M,,*6F

$GPGGA,140433.00,5003.96665106,N,01955.22930826,E,1,22,0.6,226.747,M,41.998,M,,*61

$GPGGA,140434.00,5003.96664538,N,01955.22932120,E,1,22,0.6,226.780,M,41.998,M,,*68

$GPGGA,140435.00,5003.96664678,N,01955.22930991,E,1,22,0.6,226.753,M,41.998,M,,*60

$GPGGA,140436.00,5003.96664479,N,01955.22931375,E,1,22,0.6,226.768,M,41.998,M,,*69

$GPGGA,140437.00,5003.96663944,N,01955.22931562,E,1,22,0.6,226.786,M,41.998,M,,*6C

$GPGGA,140438.00,5003.96663748,N,01955.22932016,E,1,22,0.6,226.798,M,41.998,M,,*6B

$GPGGA,140439.00,5003.96663661,N,01955.22932378,E,1,22,0.6,226.803,M,41.998,M,,*66

$GPGGA,140440.00,5003.96663393,N,01955.22933063,E,1,22,0.6,226.825,M,41.998,M,,*6C

$GPGGA,140441.00,5003.96663416,N,01955.22932751,E,1,22,0.6,226.824,M,41.998,M,,*61

$GPGGA,140442.00,5003.96663216,N,01955.22933300,E,1,22,0.6,226.827,M,41.998,M,,*66

$GPGGA,140443.00,5003.96663148,N,01955.22933677,E,1,22,0.6,226.835,M,41.998,M,,*69

$GPGGA,140444.00,5003.96662880,N,01955.22933954,E,1,22,0.6,226.849,M,41.998,M,,*67

$GPZDA,140444.015,06,03,2014,00,00*51

$GPGGA,140445.00,5003.96662589,N,01955.22934826,E,1,22,0.6,226.860,M,41.998,M,,*6A

$GPGGA,140446.00,5003.96662867,N,01955.22934253,E,1,22,0.6,226.861,M,41.998,M,,*6D

$GPGGA,140447.00,5003.96662859,N,01955.22933449,E,1,22,0.6,226.836,M,41.998,M,,*69

$GPGGA,140448.00,5003.96662645,N,01955.22933802,E,1,22,0.6,226.854,M,41.998,M,,*62

$GPGGA,140449.00,5003.96662501,N,01955.22934799,E,1,22,0.6,226.866,M,41.998,M,,*6B

$GPGGA,140450.00,5003.96662155,N,01955.22935235,E,1,22,0.6,226.890,M,41.998,M,,*6D

$GPGGA,140451.00,5003.96661672,N,01955.22937550,E,1,22,0.6,226.904,M,41.998,M,,*67

$GPGGA,140452.00,5003.96661803,N,01955.22935406,E,1,22,0.6,226.880,M,41.998,M,,*61

$GPGGA,140453.00,5003.96661721,N,01955.22936813,E,1,22,0.6,226.872,M,41.998,M,,*69

$GPGGA,140454.00,5003.96661673,N,01955.22936641,E,1,22,0.6,226.887,M,41.998,M,,*6B

$GPGGA,140455.00,5003.96661373,N,01955.22936866,E,1,22,0.6,226.889,M,41.998,M,,*6A

$GPGGA,140456.00,5003.96661564,N,01955.22937842,E,1,22,0.6,226.876,M,41.998,M,,*6E

$GPGGA,140457.00,5003.96661378,N,01955.22938629,E,1,22,0.6,226.874,M,41.998,M,,*6A

$GPGGA,140458.00,5003.96661028,N,01955.22939179,E,1,22,0.6,226.874,M,41.998,M,,*60

$GPGGA,140459.00,5003.96661393,N,01955.22938091,E,1,22,0.6,226.849,M,41.998,M,,*6A

$GPGGA,140500.00,5003.96661301,N,01955.22938284,E,1,22,0.6,226.856,M,41.998,M,,*64

$GPGGA,140501.00,5003.96661637,N,01955.22937559,E,1,22,0.6,226.839,M,41.998,M,,*64

$GPGGA,140502.00,5003.96662241,N,01955.22935781,E,1,22,0.6,226.799,M,41.998,M,,*61

$GPGGA,140503.00,5003.96662507,N,01955.22934693,E,1,22,0.6,226.757,M,41.998,M,,*64

$GPGGA,140504.00,5003.96662101,N,01955.22936271,E,1,22,0.6,226.792,M,41.998,M,,*62

$GPGGA,140505.00,5003.96662165,N,01955.22936195,E,1,22,0.6,226.797,M,41.998,M,,*6D

$GPGGA,140506.00,5003.96662411,N,01955.22935901,E,1,22,0.6,226.797,M,41.998,M,,*6E

$GPGGA,140507.00,5003.96662270,N,01955.22936535,E,1,22,0.6,226.808,M,41.998,M,,*6F

$GPGGA,140508.00,5003.96662319,N,01955.22936840,E,1,22,0.6,226.816,M,41.998,M,,*6E

$GPGGA,140509.00,5003.96662796,N,01955.22934908,E,1,22,0.6,226.781,M,41.998,M,,*62

$GPGGA,140510.00,5003.96662851,N,01955.22934780,E,1,22,0.6,226.785,M,41.998,M,,*64

$GPGGA,140511.00,5003.96662231,N,01955.22936408,E,1,22,0.6,226.825,M,41.998,M,,*6D

$GPGGA,140512.00,5003.96662113,N,01955.22936992,E,1,22,0.6,226.829,M,41.998,M,,*6F

$GPGGA,140513.00,5003.96662442,N,01955.22937331,E,1,22,0.6,226.829,M,41.998,M,,*6D

$GPGGA,140514.00,5003.96662404,N,01955.22937772,E,1,22,0.6,226.833,M,41.998,M,,*60

$GPGGA,140515.00,5003.96662494,N,01955.22937463,E,1,22,0.6,226.822,M,41.998,M,,*6B

$GPGGA,140516.00,5003.96662953,N,01955.22936540,E,1,22,0.6,226.805,M,41.998,M,,*6A

$GPGGA,140517.00,5003.96662748,N,01955.22937436,E,1,22,0.6,226.822,M,41.998,M,,*6B

$GPGGA,140518.00,5003.96662737,N,01955.22937523,E,1,22,0.6,226.827,M,41.998,M,,*6C

$GPGGA,140519.00,5003.96662296,N,01955.22937927,E,1,22,0.6,226.831,M,41.998,M,,*6C

$GPGGA,140520.00,5003.96662621,N,01955.22937168,E,1,22,0.6,226.820,M,41.998,M,,*6D

$GPGGA,140521.00,5003.96662624,N,01955.22936965,E,1,22,0.6,226.809,M,41.998,M,,*66

$GPGGA,140522.00,5003.96662662,N,01955.22936381,E,1,22,0.6,226.809,M,41.998,M,,*67

$GPGGA,140523.00,5003.96662986,N,01955.22935555,E,1,22,0.6,226.804,M,41.998,M,,*62

$GPGGA,140524.00,5003.96662704,N,01955.22936055,E,1,22,0.6,226.821,M,41.998,M,,*60

$GPGGA,140525.00,5003.96662607,N,01955.22935910,E,1,22,0.6,226.815,M,41.998,M,,*6F

$GPGGA,140526.00,5003.96662620,N,01955.22935182,E,1,22,0.6,226.798,M,41.998,M,,*60

$GPGGA,140527.00,5003.96662188,N,01955.22936808,E,1,22,0.6,226.817,M,41.998,M,,*64

$GPGGA,140528.00,5003.96662223,N,01955.22936886,E,1,22,0.6,226.822,M,41.998,M,,*69

$GPGGA,140529.00,5003.96662624,N,01955.22935670,E,1,22,0.6,226.791,M,41.998,M,,*68

$GPGGA,140530.00,5003.96662386,N,01955.22935893,E,1,22,0.6,226.799,M,41.998,M,,*66

$GPGGA,140531.00,5003.96662380,N,01955.22934233,E,1,22,0.6,226.819,M,41.998,M,,*67

$GPGGA,140532.00,5003.96662611,N,01955.22933719,E,1,22,0.6,226.813,M,41.998,M,,*69

$GPGGA,140533.00,5003.96662873,N,01955.22934535,E,1,22,0.6,226.800,M,41.998,M,,*6B

$GPGGA,140534.00,5003.96663200,N,01955.22934023,E,1,22,0.6,226.803,M,41.998,M,,*62

$GPGGA,140535.00,5003.96663473,N,01955.22933600,E,1,22,0.6,226.799,M,41.998,M,,*6D

$GPGGA,140536.00,5003.96663122,N,01955.22934892,E,1,22,0.6,226.851,M,41.998,M,,*66

$GPGGA,140537.00,5003.96663633,N,01955.22933452,E,1,22,0.6,226.840,M,41.998,M,,*67

$GPGGA,140538.00,5003.96664068,N,01955.22932461,E,1,22,0.6,226.830,M,41.998,M,,*61

$GPGGA,140539.00,5003.96663848,N,01955.22933220,E,1,22,0.6,226.847,M,41.998,M,,*6F

$GPGGA,140540.00,5003.96664034,N,01955.22933238,E,1,22,0.6,226.850,M,41.998,M,,*6A

$GPGGA,140541.00,5003.96663822,N,01955.22934402,E,1,22,0.6,226.872,M,41.998,M,,*6B

$GPGGA,140542.00,5003.96663882,N,01955.22935015,E,1,22,0.6,226.882,M,41.998,M,,*6E

$GPGGA,140543.00,5003.96663638,N,01955.22934518,E,1,22,0.6,226.870,M,41.998,M,,*64

$GPGGA,140544.00,5003.96663714,N,01955.22933967,E,1,22,0.6,226.863,M,41.998,M,,*6D

$GPZDA,140544.016,06,03,2014,00,00*53

$GPGGA,140545.00,5003.96663221,N,01955.22935377,E,1,22,0.6,226.913,M,41.998,M,,*64

$GPGGA,140546.00,5003.96663607,N,01955.22934292,E,1,22,0.6,226.900,M,41.998,M,,*6E

$GPGGA,140547.00,5003.96663875,N,01955.22933772,E,1,22,0.6,226.896,M,41.998,M,,*66

$GPGGA,140548.00,5003.96664104,N,01955.22933214,E,1,22,0.6,226.893,M,41.998,M,,*61

$GPGGA,140549.00,5003.96664250,N,01955.22932305,E,1,22,0.6,226.878,M,41.998,M,,*67

$GPGGA,140550.00,5003.96663547,N,01955.22933569,E,1,22,0.6,226.932,M,41.998,M,,*6B

$GPGGA,140551.00,5003.96663331,N,01955.22934848,E,1,22,0.6,226.940,M,41.998,M,,*61

$GPGGA,140552.00,5003.96663433,N,01955.22934235,E,1,22,0.6,226.928,M,41.998,M,,*69

$GPGGA,140553.00,5003.96663396,N,01955.22934319,E,1,22,0.6,226.935,M,41.998,M,,*63

$GPGGA,140554.00,5003.96663562,N,01955.22934129,E,1,22,0.6,226.927,M,41.998,M,,*6B

$GPGGA,140555.00,5003.96663418,N,01955.22934917,E,1,22,0.6,226.951,M,41.998,M,,*62

$GPGGA,140556.00,5003.96663278,N,01955.22935171,E,1,22,0.6,226.955,M,41.998,M,,*6C

$GPGGA,140557.00,5003.96662779,N,01955.22936307,E,1,22,0.6,226.982,M,41.998,M,,*62

$GPGGA,140558.00,5003.96662734,N,01955.22935640,E,1,22,0.6,226.981,M,41.998,M,,*62

$GPGGA,140559.00,5003.96662764,N,01955.22935315,E,1,22,0.6,226.972,M,41.998,M,,*6F

$GPGGA,140600.00,5003.96663599,N,01955.22933530,E,1,22,0.6,226.918,M,41.998,M,,*6A

$GPGGA,140601.00,5003.96663204,N,01955.22933719,E,1,22,0.6,226.927,M,41.998,M,,*6D

$GPGGA,140602.00,5003.96662939,N,01955.22934858,E,1,22,0.6,226.927,M,41.998,M,,*67

$GPGGA,140603.00,5003.96662884,N,01955.22934309,E,1,22,0.6,226.924,M,41.998,M,,*6D

$GPGGA,140604.00,5003.96663370,N,01955.22933440,E,1,22,0.6,226.895,M,41.998,M,,*6D

$GPGGA,140605.00,5003.96663092,N,01955.22933685,E,1,22,0.6,226.911,M,41.998,M,,*65

$GPGGA,140606.00,5003.96663290,N,01955.22932781,E,1,22,0.6,226.894,M,41.998,M,,*6E

$GPGGA,140607.00,5003.96663007,N,01955.22934175,E,1,22,0.6,226.919,M,41.998,M,,*6C

$GPGGA,140608.00,5003.96663351,N,01955.22933459,E,1,22,0.6,226.926,M,41.998,M,,*63

$GPGGA,140609.00,5003.96662962,N,01955.22934640,E,1,22,0.6,226.964,M,41.998,M,,*62

$GPGGA,140610.00,5003.96662809,N,01955.22935041,E,1,22,0.6,226.978,M,41.998,M,,*6D

$GPGGA,140611.00,5003.96663059,N,01955.22934142,E,1,22,0.6,226.967,M,41.998,M,,*6D

$GPGGA,140612.00,5003.96663548,N,01955.22933452,E,1,22,0.6,226.952,M,41.998,M,,*6E

$GPGGA,140613.00,5003.96663720,N,01955.22933476,E,1,22,0.6,226.955,M,41.998,M,,*62

$GPGGA,140614.00,5003.96663921,N,01955.22933551,E,1,22,0.6,226.969,M,41.998,M,,*61

$GPGGA,140615.00,5003.96663788,N,01955.22934274,E,1,22,0.6,226.982,M,41.998,M,,*6F

$GPGGA,140616.00,5003.96664478,N,01955.22932906,E,1,22,0.6,226.946,M,41.998,M,,*67

$GPGGA,140617.00,5003.96664511,N,01955.22933746,E,1,22,0.6,226.958,M,41.998,M,,*6C

$GPGGA,140618.00,5003.96664464,N,01955.22935491,E,1,22,0.6,226.969,M,41.998,M,,*6D

$GPGGA,140619.00,5003.96664417,N,01955.22935909,E,1,22,0.6,226.976,M,41.998,M,,*6A

$GPGGA,140620.00,5003.96664493,N,01955.22936250,E,1,22,0.6,226.982,M,41.998,M,,*63

$GPGGA,140621.00,5003.96664595,N,01955.22936965,E,1,22,0.6,226.990,M,41.998,M,,*6B

$GPGGA,140622.00,5003.96664387,N,01955.22937133,E,1,22,0.6,227.006,M,41.998,M,,*60

$GPGGA,140623.00,5003.96664728,N,01955.22935555,E,1,22,0.6,226.995,M,41.998,M,,*64

$GPGGA,140624.00,5003.96664807,N,01955.22935895,E,1,22,0.6,227.010,M,41.998,M,,*65

$GPGGA,140625.00,5003.96665585,N,01955.22933902,E,1,22,0.6,226.962,M,41.998,M,,*66

$GPGGA,140626.00,5003.96665084,N,01955.22935577,E,1,22,0.6,227.004,M,41.998,M,,*61

$GPGGA,140627.00,5003.96665110,N,01955.22934647,E,1,22,0.6,226.988,M,41.998,M,,*61

$GPGGA,140628.00,5003.96665111,N,01955.22935176,E,1,22,0.6,226.992,M,41.998,M,,*60

$GPGGA,140629.00,5003.96665937,N,01955.22932988,E,1,22,0.6,226.937,M,41.998,M,,*6C

$GPGGA,140630.00,5003.96666417,N,01955.22932777,E,1,22,0.6,226.925,M,41.998,M,,*65

$GPGGA,140631.00,5003.96666337,N,01955.22933624,E,1,22,0.6,226.950,M,41.998,M,,*65

$GPGGA,140632.00,5003.96666583,N,01955.22933993,E,1,22,0.6,226.959,M,41.998,M,,*65

$GPGGA,140633.00,5003.96666581,N,01955.22934891,E,1,22,0.6,226.967,M,41.998,M,,*6F

$GPGGA,140634.00,5003.96666514,N,01955.22935727,E,1,22,0.6,226.980,M,41.998,M,,*6E

$GPGGA,140635.00,5003.96666857,N,01955.22936155,E,1,22,0.6,226.971,M,41.998,M,,*6B

$GPGGA,140636.00,5003.96666621,N,01955.22936896,E,1,22,0.6,226.999,M,41.998,M,,*67

$GPGGA,140637.00,5003.96666904,N,01955.22936953,E,1,22,0.6,227.002,M,41.998,M,,*6C

$GPGGA,140638.00,5003.96667335,N,01955.22936226,E,1,22,0.6,226.981,M,41.998,M,,*60

$GPGGA,140639.00,5003.96667591,N,01955.22935486,E,1,22,0.6,226.967,M,41.998,M,,*6E

$GPGGA,140640.00,5003.96667686,N,01955.22936090,E,1,22,0.6,226.967,M,41.998,M,,*65

$GPGGA,140641.00,5003.96667616,N,01955.22936298,E,1,22,0.6,226.959,M,41.998,M,,*6A

$GPGGA,140642.00,5003.96667279,N,01955.22938783,E,1,22,0.6,227.006,M,41.998,M,,*67

$GPGGA,140643.00,5003.96667271,N,01955.22939100,E,1,22,0.6,227.014,M,41.998,M,,*61

$GPGGA,140644.00,5003.96667064,N,01955.22940398,E,1,22,0.6,227.039,M,41.998,M,,*62

$GPZDA,140644.016,06,03,2014,00,00*50

$GPGGA,140645.00,5003.96667234,N,01955.22940167,E,1,22,0.6,227.036,M,41.998,M,,*69

$GPGGA,140646.00,5003.96668218,N,01955.22938129,E,1,22,0.6,226.992,M,41.998,M,,*68

$GPGGA,140647.00,5003.96667969,N,01955.22939060,E,1,22,0.6,227.011,M,41.998,M,,*65

$GPGGA,140648.00,5003.96667882,N,01955.22939329,E,1,22,0.6,227.011,M,41.998,M,,*60

$GPGGA,140649.00,5003.96668472,N,01955.22938242,E,1,22,0.6,226.988,M,41.998,M,,*68

$GPGGA,140650.00,5003.96667990,N,01955.22939700,E,1,22,0.6,227.018,M,41.998,M,,*6D

$GPGGA,140651.00,5003.96667940,N,01955.22939759,E,1,22,0.6,227.029,M,41.998,M,,*6F

$GPGGA,140652.00,5003.96668278,N,01955.22939071,E,1,22,0.6,226.989,M,41.998,M,,*6C

$GPGGA,140653.00,5003.96668161,N,01955.22940504,E,1,22,0.6,227.016,M,41.998,M,,*61

$GPGGA,140654.00,5003.96667982,N,01955.22940340,E,1,22,0.6,227.001,M,41.998,M,,*6C

$GPGGA,140655.00,5003.96668184,N,01955.22939624,E,1,22,0.6,226.983,M,41.998,M,,*67

$GPGGA,140656.00,5003.96667986,N,01955.22939755,E,1,22,0.6,226.981,M,41.998,M,,*64

$GPGGA,140657.00,5003.96668590,N,01955.22938366,E,1,22,0.6,226.949,M,41.998,M,,*60

$GPGGA,140658.00,5003.96668427,N,01955.22939633,E,1,22,0.6,226.968,M,41.998,M,,*65

$GPGGA,140659.00,5003.96668390,N,01955.22939370,E,1,22,0.6,226.961,M,41.998,M,,*64

$GPGGA,140700.00,5003.96668189,N,01955.22938925,E,1,22,0.6,226.950,M,41.998,M,,*6A

$GPGGA,140701.00,5003.96667734,N,01955.22939313,E,1,22,0.6,226.959,M,41.998,M,,*63

$GPGGA,140702.00,5003.96667699,N,01955.22939431,E,1,22,0.6,226.950,M,41.998,M,,*68

$GPGGA,140703.00,5003.96667715,N,01955.22939976,E,1,22,0.6,226.957,M,41.998,M,,*65

$GPGGA,140704.00,5003.96667812,N,01955.22939786,E,1,22,0.6,226.946,M,41.998,M,,*6B

$GPGGA,140705.00,5003.96667953,N,01955.22939444,E,1,22,0.6,226.940,M,41.998,M,,*65

$GPGGA,140706.00,5003.96667764,N,01955.22939500,E,1,22,0.6,226.933,M,41.998,M,,*69

$GPGGA,140707.00,5003.96667567,N,01955.22939884,E,1,22,0.6,226.926,M,41.998,M,,*6C

$GPGGA,140708.00,5003.96667430,N,01955.22940471,E,1,22,0.6,226.933,M,41.998,M,,*6C

$GPGGA,140709.00,5003.96667251,N,01955.22941078,E,1,22,0.6,226.939,M,41.998,M,,*6A

$GPGGA,140710.00,5003.96667403,N,01955.22941619,E,1,22,0.6,226.939,M,41.998,M,,*62

$GPGGA,140711.00,5003.96667345,N,01955.22941473,E,1,22,0.6,226.940,M,41.998,M,,*66

$GPGGA,140712.00,5003.96667303,N,01955.22941630,E,1,22,0.6,226.914,M,41.998,M,,*63

$GPGGA,140713.00,5003.96667875,N,01955.22940440,E,1,22,0.6,226.889,M,41.998,M,,*69

$GPGGA,140714.00,5003.96667830,N,01955.22940703,E,1,22,0.6,226.903,M,41.998,M,,*68

$GPGGA,140715.00,5003.96667991,N,01955.22941758,E,1,22,0.6,226.906,M,41.998,M,,*69

$GPGGA,140716.00,5003.96667934,N,01955.22942454,E,1,22,0.6,226.908,M,41.998,M,,*67

$GPGGA,140717.00,5003.96668466,N,01955.22941952,E,1,22,0.6,226.906,M,41.998,M,,*65

$GPGGA,140718.00,5003.96668948,N,01955.22941530,E,1,22,0.6,226.885,M,41.998,M,,*69

$GPGGA,140719.00,5003.96669159,N,01955.22942028,E,1,22,0.6,226.891,M,41.998,M,,*6B

$GPGGA,140720.00,5003.96669271,N,01955.22941502,E,1,22,0.6,226.880,M,41.998,M,,*66

$GPGGA,140721.00,5003.96669527,N,01955.22942593,E,1,22,0.6,226.868,M,41.998,M,,*6E

$GPGGA,140722.00,5003.96670263,N,01955.22941252,E,1,22,0.6,226.818,M,41.998,M,,*6C

$GPGGA,140723.00,5003.96670638,N,01955.22941184,E,1,22,0.6,226.830,M,41.998,M,,*65

$GPGGA,140724.00,5003.96670957,N,01955.22941504,E,1,22,0.6,226.833,M,41.998,M,,*6B

$GPGGA,140725.00,5003.96670174,N,01955.22937096,E,1,22,0.6,226.913,M,41.998,M,,*6F

$GPGGA,140726.00,5003.96669736,N,01955.22938525,E,1,22,0.6,226.918,M,41.998,M,,*6D

$GPGGA,140727.00,5003.96669371,N,01955.22938993,E,1,22,0.6,226.917,M,41.998,M,,*65

$GPGGA,140728.00,5003.96669484,N,01955.22939604,E,1,22,0.6,226.927,M,41.998,M,,*64

$GPGGA,140729.00,5003.96669534,N,01955.22939815,E,1,22,0.6,226.922,M,41.998,M,,*64

$GPGGA,140730.00,5003.96669470,N,01955.22940632,E,1,22,0.6,226.915,M,41.998,M,,*6C

$GPGGA,140731.00,5003.96669303,N,01955.22941758,E,1,22,0.6,226.908,M,41.998,M,,*6E

$GPGGA,140732.00,5003.96668921,N,01955.22941429,E,1,22,0.6,226.894,M,41.998,M,,*67

$GPGGA,140733.00,5003.96668376,N,01955.22942653,E,1,22,0.6,226.893,M,41.998,M,,*65

$GPGGA,140734.00,5003.96668096,N,01955.22942905,E,1,22,0.6,226.897,M,41.998,M,,*67

$GPGGA,140735.00,5003.96668088,N,01955.22943081,E,1,22,0.6,226.887,M,41.998,M,,*6C

$GPGGA,140736.00,5003.96668243,N,01955.22943266,E,1,22,0.6,226.877,M,41.998,M,,*6E

$GPGGA,140737.00,5003.96667857,N,01955.22944937,E,1,22,0.6,226.890,M,41.998,M,,*6E

$GPGGA,140738.00,5003.96668198,N,01955.22945217,E,1,22,0.6,226.844,M,41.998,M,,*65

$GPGGA,140739.00,5003.96667676,N,01955.22946678,E,1,22,0.6,226.857,M,41.998,M,,*60

$GPGGA,140740.00,5003.96667872,N,01955.22946571,E,1,22,0.6,226.832,M,41.998,M,,*6D

$GPGGA,140741.00,5003.96668410,N,01955.22945665,E,1,22,0.6,226.808,M,41.998,M,,*67

$GPGGA,140742.00,5003.96668307,N,01955.22945369,E,1,22,0.6,226.788,M,41.998,M,,*6B

$GPGGA,140743.00,5003.96668330,N,01955.22946020,E,1,22,0.6,226.754,M,41.998,M,,*62

$GPGGA,140744.00,5003.96668373,N,01955.22946507,E,1,22,0.6,226.711,M,41.998,M,,*63

$GPZDA,140744.015,06,03,2014,00,00*52

$GPGGA,140745.00,5003.96668065,N,01955.22947908,E,1,22,0.6,226.678,M,41.998,M,,*6A

$GPGGA,140746.00,5003.96667514,N,01955.22948762,E,1,22,0.6,226.628,M,41.998,M,,*6D

$GPGGA,140747.00,5003.96667049,N,01955.22949740,E,1,22,0.6,226.635,M,41.998,M,,*6C

$GPGGA,140748.00,5003.96667614,N,01955.22949096,E,1,22,0.6,226.598,M,41.998,M,,*65

$GPGGA,140749.00,5003.96667830,N,01955.22948860,E,1,22,0.6,226.611,M,41.998,M,,*6E

$GPGGA,140750.00,5003.96667912,N,01955.22949294,E,1,22,0.6,226.616,M,41.998,M,,*60

$GPGGA,140751.00,5003.96670150,N,01955.22960941,E,1,22,0.6,226.438,M,41.998,M,,*6F

$GPGGA,140752.00,5003.96669842,N,01955.22958293,E,1,22,0.6,226.449,M,41.998,M,,*67

$GPGGA,140753.00,5003.96669956,N,01955.22958792,E,1,22,0.6,226.459,M,41.998,M,,*67

$GPGGA,140754.00,5003.96672961,N,01955.22948856,E,1,22,0.6,226.225,M,41.998,M,,*65

$GPGGA,140755.00,5003.96673304,N,01955.22947317,E,1,22,0.6,226.213,M,41.998,M,,*68

$GPGGA,140756.00,5003.96673177,N,01955.22947965,E,1,22,0.6,226.215,M,41.998,M,,*64

$GPGGA,140757.00,5003.96673220,N,01955.22946949,E,1,22,0.6,226.217,M,41.998,M,,*69

$GPGGA,140758.00,5003.96673822,N,01955.22947650,E,1,22,0.6,226.210,M,41.998,M,,*6F

$GPGGA,140759.00,5003.96674260,N,01955.22946621,E,1,22,0.6,226.196,M,41.998,M,,*6F

$GPGGA,140800.00,5003.96674131,N,01955.22946052,E,1,22,0.6,226.205,M,41.998,M,,*60

$GPGGA,140801.00,5003.96674470,N,01955.22946403,E,1,22,0.6,226.198,M,41.998,M,,*66

$GPGGA,140802.00,5003.96674448,N,01955.22946574,E,1,22,0.6,226.172,M,41.998,M,,*6B

$GPGGA,140803.00,5003.96674462,N,01955.22946323,E,1,22,0.6,226.185,M,41.998,M,,*6E

$GPGGA,140804.00,5003.96674448,N,01955.22947417,E,1,22,0.6,226.164,M,41.998,M,,*6F

$GPGGA,140805.00,5003.96674433,N,01955.22947853,E,1,22,0.6,226.171,M,41.998,M,,*6A

$GPGGA,140806.00,5003.96674414,N,01955.22947230,E,1,22,0.6,226.189,M,41.998,M,,*64

$GPGGA,140807.00,5003.96674305,N,01955.22946685,E,1,22,0.6,226.172,M,41.998,M,,*6D

$GPGGA,140808.00,5003.96673984,N,01955.22944624,E,1,22,0.6,226.201,M,41.998,M,,*68

$GPGGA,140809.00,5003.96674059,N,01955.22945451,E,1,22,0.6,226.186,M,41.998,M,,*6A

$GPGGA,140810.00,5003.96673958,N,01955.22944157,E,1,22,0.6,226.186,M,41.998,M,,*6F

$GPGGA,140811.00,5003.96673639,N,01955.22944127,E,1,22,0.6,226.196,M,41.998,M,,*60

$GPGGA,140812.00,5003.96672995,N,01955.22944622,E,1,22,0.6,226.205,M,41.998,M,,*60

$GPGGA,140813.00,5003.96673064,N,01955.22943980,E,1,22,0.6,226.171,M,41.998,M,,*67

$GPGGA,140814.00,5003.96672953,N,01955.22943065,E,1,22,0.6,226.179,M,41.998,M,,*66

$GPGGA,140815.00,5003.96672559,N,01955.22942713,E,1,22,0.6,226.190,M,41.998,M,,*61

$GPGGA,140816.00,5003.96672792,N,01955.22941428,E,1,22,0.6,226.186,M,41.998,M,,*68

$GPGGA,140817.00,5003.96672942,N,01955.22940678,E,1,22,0.6,226.204,M,41.998,M,,*65

$GPGGA,140818.00,5003.96672822,N,01955.22941261,E,1,22,0.6,226.217,M,41.998,M,,*62

$GPGGA,140819.00,5003.96672347,N,01955.22940021,E,1,22,0.6,226.229,M,41.998,M,,*61

$GPGGA,140820.00,5003.96672684,N,01955.22939485,E,1,22,0.6,226.257,M,41.998,M,,*6C

$GPGGA,140821.00,5003.96672082,N,01955.22939433,E,1,22,0.6,226.268,M,41.998,M,,*6C

$GPGGA,140822.00,5003.96670357,N,01955.22930581,E,1,21,0.6,226.418,M,41.998,M,,*65

$GPGGA,140823.00,5003.96667595,N,01955.22938078,E,1,21,0.6,226.598,M,41.998,M,,*68

$GPGGA,140824.00,5003.96667384,N,01955.22937572,E,1,21,0.6,226.609,M,41.998,M,,*62

$GPGGA,140825.00,5003.96667315,N,01955.22937816,E,1,21,0.6,226.621,M,41.998,M,,*6E

$GPGGA,140826.00,5003.96667194,N,01955.22937586,E,1,21,0.6,226.619,M,41.998,M,,*69

$GPGGA,140827.00,5003.96666559,N,01955.22938042,E,1,21,0.6,226.655,M,41.998,M,,*66

$GPGGA,140828.00,5003.96666259,N,01955.22938292,E,1,21,0.6,226.665,M,41.998,M,,*62

$GPGGA,140829.00,5003.96666167,N,01955.22937781,E,1,21,0.6,226.663,M,41.998,M,,*63

$GPGGA,140830.00,5003.96666090,N,01955.22937220,E,1,21,0.6,226.649,M,41.998,M,,*64

$GPGGA,140831.00,5003.96665695,N,01955.22936784,E,1,21,0.6,226.661,M,41.998,M,,*65

$GPGGA,140832.00,5003.96665657,N,01955.22936563,E,1,21,0.6,226.669,M,41.998,M,,*6B

$GPGGA,140833.00,5003.96665524,N,01955.22937221,E,1,21,0.6,226.680,M,41.998,M,,*6A

$GPGGA,140834.00,5003.96665048,N,01955.22937764,E,1,21,0.6,226.702,M,41.998,M,,*6D

$GPGGA,140835.00,5003.96664707,N,01955.22937892,E,1,21,0.6,226.714,M,41.998,M,,*60

$GPGGA,140836.00,5003.96664316,N,01955.22938099,E,1,21,0.6,226.720,M,41.998,M,,*6C

$GPGGA,140837.00,5003.96664163,N,01955.22937875,E,1,21,0.6,226.720,M,41.998,M,,*68

$GPGGA,140838.00,5003.96665052,N,01955.22943244,E,1,22,0.6,226.648,M,41.998,M,,*62

$GPGGA,140839.00,5003.96665128,N,01955.22943375,E,1,22,0.6,226.653,M,41.998,M,,*66

$GPGGA,140840.00,5003.96664942,N,01955.22943030,E,1,22,0.6,226.681,M,41.998,M,,*60

$GPGGA,140841.00,5003.96664990,N,01955.22943097,E,1,22,0.6,226.699,M,41.998,M,,*6A

$GPGGA,140842.00,5003.96665030,N,01955.22943811,E,1,22,0.6,226.682,M,41.998,M,,*67

$GPGGA,140843.00,5003.96665327,N,01955.22943632,E,1,22,0.6,226.681,M,41.998,M,,*6F

$GPGGA,140844.00,5003.96665263,N,01955.22945040,E,1,22,0.6,226.686,M,41.998,M,,*6B

$GPZDA,140844.016,06,03,2014,00,00*5E

$GPGGA,140845.00,5003.96665185,N,01955.22945011,E,1,22,0.6,226.700,M,41.998,M,,*6A

$GPGGA,140846.00,5003.96664867,N,01955.22945478,E,1,22,0.6,226.708,M,41.998,M,,*6E

$GPGGA,140847.00,5003.96667214,N,01955.22958526,E,1,22,0.6,226.510,M,41.998,M,,*6F

$GPGGA,140848.00,5003.96663607,N,01955.22940852,E,1,21,0.6,226.804,M,41.998,M,,*6E

$GPGGA,140849.00,5003.96664461,N,01955.22943907,E,1,22,0.6,226.754,M,41.998,M,,*61

$GPGGA,140850.00,5003.96664720,N,01955.22944653,E,1,22,0.6,226.748,M,41.998,M,,*6B

$GPGGA,140851.00,5003.96666280,N,01955.22953251,E,1,22,0.6,226.620,M,41.998,M,,*68

$GPGGA,140852.00,5003.96666413,N,01955.22952323,E,1,22,0.6,226.608,M,41.998,M,,*68

$GPGGA,140853.00,5003.96667022,N,01955.22950409,E,1,22,0.6,226.613,M,41.998,M,,*69

$GPGGA,140854.00,5003.96666957,N,01955.22948499,E,1,22,0.6,226.642,M,41.998,M,,*60

$GPGGA,140855.00,5003.96666492,N,01955.22946231,E,1,22,0.6,226.679,M,41.998,M,,*67

$GPGGA,140856.00,5003.96666208,N,01955.22946337,E,1,22,0.6,226.688,M,41.998,M,,*68

$GPGGA,140857.00,5003.96665231,N,01955.22939157,E,1,22,0.6,226.772,M,41.998,M,,*68

$GPGGA,140858.00,5003.96664181,N,01955.22938574,E,1,21,0.6,226.826,M,41.998,M,,*67

$GPGGA,140859.00,5003.96664244,N,01955.22937787,E,1,21,0.6,226.829,M,41.998,M,,*62

$GPGGA,140900.00,5003.96663798,N,01955.22938276,E,1,21,0.6,226.848,M,41.998,M,,*6F

$GPGGA,140901.00,5003.96663741,N,01955.22938253,E,1,21,0.6,226.869,M,41.998,M,,*6E

$GPGGA,140902.00,5003.96663569,N,01955.22937918,E,1,21,0.6,226.873,M,41.998,M,,*65

$GPGGA,140903.00,5003.96663463,N,01955.22938047,E,1,21,0.6,226.881,M,41.998,M,,*6E

$GPGGA,140904.00,5003.96663227,N,01955.22937787,E,1,21,0.6,226.892,M,41.998,M,,*69

$GPGGA,140905.00,5003.96663569,N,01955.22935960,E,1,21,0.6,226.861,M,41.998,M,,*6C

$GPGGA,140906.00,5003.96663439,N,01955.22936273,E,1,21,0.6,226.861,M,41.998,M,,*61

$GPGGA,140907.00,5003.96663651,N,01955.22934973,E,1,21,0.6,226.843,M,41.998,M,,*65

$GPGGA,140908.00,5003.96663723,N,01955.22934452,E,1,21,0.6,226.827,M,41.998,M,,*62

$GPGGA,140909.00,5003.96663952,N,01955.22934532,E,1,21,0.6,226.825,M,41.998,M,,*6E

$GPGGA,140910.00,5003.96671285,N,01955.22942143,E,1,22,0.6,227.091,M,41.998,M,,*62

$GPGGA,140911.00,5003.96671129,N,01955.22941875,E,1,22,0.6,227.107,M,41.998,M,,*67

$GPGGA,140912.00,5003.96670972,N,01955.22941585,E,1,22,0.6,227.116,M,41.998,M,,*61

$GPGGA,140913.00,5003.96671262,N,01955.22940944,E,1,22,0.6,227.112,M,41.998,M,,*6F

$GPGGA,140914.00,5003.96670944,N,01955.22941316,E,1,22,0.6,227.132,M,41.998,M,,*68

$GPGGA,140915.00,5003.96671373,N,01955.22941234,E,1,22,0.6,227.147,M,41.998,M,,*65

$GPGGA,140916.00,5003.96671397,N,01955.22941473,E,1,22,0.6,227.150,M,41.998,M,,*6F

$GPGGA,140917.00,5003.96673361,N,01955.22949297,E,1,23,0.5,227.034,M,41.998,M,,*60

$GPGGA,140918.00,5003.96673669,N,01955.22947110,E,1,23,0.5,227.022,M,41.998,M,,*67

$GPGGA,140919.00,5003.96673472,N,01955.22948103,E,1,23,0.5,227.033,M,41.998,M,,*63

$GPGGA,140920.00,5003.96673403,N,01955.22946766,E,1,23,0.5,227.056,M,41.998,M,,*67

$GPGGA,140921.00,5003.96673130,N,01955.22946518,E,1,23,0.5,227.084,M,41.998,M,,*67

$GPGGA,140922.00,5003.96673231,N,01955.22945822,E,1,23,0.5,227.078,M,41.998,M,,*62

$GPGGA,140923.00,5003.96673083,N,01955.22944569,E,1,23,0.5,227.104,M,41.998,M,,*61

$GPGGA,140924.00,5003.96675830,N,01955.22956622,E,1,23,0.5,226.902,M,41.998,M,,*60

$GPGGA,140925.00,5003.96675997,N,01955.22957437,E,1,23,0.5,226.925,M,41.998,M,,*6F

$GPGGA,140926.00,5003.96675452,N,01955.22955636,E,1,23,0.5,226.967,M,41.998,M,,*6F

$GPGGA,140927.00,5003.96675203,N,01955.22956558,E,1,23,0.5,226.988,M,41.998,M,,*65

$GPGGA,140928.00,5003.96674663,N,01955.22952059,E,1,23,0.5,227.038,M,41.998,M,,*6A

$GPGGA,140929.00,5003.96675694,N,01955.22954858,E,1,23,0.5,226.994,M,41.998,M,,*63

$GPGGA,140930.00,5003.96675251,N,01955.22953342,E,1,23,0.5,227.028,M,41.998,M,,*6E

$GPGGA,140931.00,5003.96674709,N,01955.22952272,E,1,23,0.5,227.059,M,41.998,M,,*63

$GPGGA,140932.00,5003.96674708,N,01955.22952331,E,1,23,0.5,227.033,M,41.998,M,,*6B

$GPGGA,140933.00,5003.96674043,N,01955.22950828,E,1,23,0.5,227.072,M,41.998,M,,*66

$GPGGA,140934.00,5003.96673007,N,01955.22950649,E,1,23,0.5,227.090,M,41.998,M,,*63

$GPGGA,140935.00,5003.96672755,N,01955.22950668,E,1,23,0.5,227.075,M,41.998,M,,*6B

$GPGGA,140936.00,5003.96673222,N,01955.22952162,E,1,23,0.5,227.023,M,41.998,M,,*60

$GPGGA,140937.00,5003.96672924,N,01955.22951662,E,1,23,0.5,227.035,M,41.998,M,,*6E

$GPGGA,140938.00,5003.96672901,N,01955.22951096,E,1,23,0.5,227.040,M,41.998,M,,*69

$GPGGA,140939.00,5003.96672960,N,01955.22951243,E,1,23,0.5,227.039,M,41.998,M,,*6B

$GPGGA,140940.00,5003.96672819,N,01955.22950528,E,1,23,0.5,227.036,M,41.998,M,,*6E

$GPGGA,140941.00,5003.96672208,N,01955.22949581,E,1,23,0.5,227.064,M,41.998,M,,*69

$GPGGA,140942.00,5003.96671725,N,01955.22947667,E,1,23,0.5,227.088,M,41.998,M,,*64

$GPGGA,140943.00,5003.96671683,N,01955.22946837,E,1,23,0.5,227.099,M,41.998,M,,*62

$GPGGA,140944.00,5003.96672287,N,01955.22947642,E,1,23,0.5,227.058,M,41.998,M,,*66

$GPZDA,140944.015,06,03,2014,00,00*5C

$GPGGA,140945.00,5003.96672659,N,01955.22947191,E,1,23,0.5,227.045,M,41.998,M,,*65

$GPGGA,140946.00,5003.96672630,N,01955.22947519,E,1,23,0.5,227.042,M,41.998,M,,*6A

$GPGGA,140947.00,5003.96672270,N,01955.22947680,E,1,23,0.5,227.054,M,41.998,M,,*6F

$GPGGA,140948.00,5003.96672032,N,01955.22947572,E,1,23,0.5,227.041,M,41.998,M,,*6E

$GPGGA,140949.00,5003.96672117,N,01955.22945833,E,1,23,0.5,227.027,M,41.998,M,,*63

$GPGGA,140950.00,5003.96671848,N,01955.22945774,E,1,23,0.5,227.036,M,41.998,M,,*67

$GPGGA,140951.00,5003.96672203,N,01955.22947358,E,1,23,0.5,227.025,M,41.998,M,,*6A

$GPGGA,140952.00,5003.96672275,N,01955.22947943,E,1,23,0.5,226.998,M,41.998,M,,*66

$GPGGA,140953.00,5003.96675006,N,01955.22947288,E,1,23,0.5,226.891,M,41.998,M,,*62

$GPGGA,140954.00,5003.96674574,N,01955.22946441,E,1,23,0.5,226.902,M,41.998,M,,*6D

$GPGGA,140955.00,5003.96675063,N,01955.22946387,E,1,22,0.6,226.861,M,41.998,M,,*65

$GPGGA,140956.00,5003.96674972,N,01955.22945866,E,1,22,0.6,226.861,M,41.998,M,,*69

$GPGGA,140957.00,5003.96674174,N,01955.22946144,E,1,22,0.6,226.873,M,41.998,M,,*6F

$GPGGA,140958.00,5003.96674679,N,01955.22944861,E,1,22,0.6,226.851,M,41.998,M,,*66

$GPGGA,140959.00,5003.96674320,N,01955.22944980,E,1,22,0.6,226.853,M,41.998,M,,*62

$GPGGA,141000.00,5003.96674190,N,01955.22945217,E,1,22,0.6,226.865,M,41.998,M,,*6E

$GPGGA,141001.00,5003.96674602,N,01955.22943537,E,1,22,0.6,226.843,M,41.998,M,,*64

$GPGGA,141002.00,5003.96673990,N,01955.22942929,E,1,22,0.6,226.858,M,41.998,M,,*6C

$GPGGA,141003.00,5003.96673446,N,01955.22943365,E,1,22,0.6,226.875,M,41.998,M,,*67

$GPGGA,141004.00,5003.96673334,N,01955.22943109,E,1,22,0.6,226.857,M,41.998,M,,*6A

$GPGGA,141005.00,5003.96672618,N,01955.22942415,E,1,22,0.6,226.841,M,41.998,M,,*6F

$GPGGA,141006.00,5003.96672332,N,01955.22941741,E,1,22,0.6,226.844,M,41.998,M,,*65

$GPGGA,141007.00,5003.96672904,N,01955.22941114,E,1,22,0.6,226.826,M,41.998,M,,*69

$GPGGA,141008.00,5003.96673122,N,01955.22942305,E,1,22,0.6,226.848,M,41.998,M,,*62

$GPGGA,141009.00,5003.96673672,N,01955.22942366,E,1,22,0.6,226.820,M,41.998,M,,*6A

$GPGGA,141010.00,5003.96673429,N,01955.22941324,E,1,22,0.6,226.824,M,41.998,M,,*6F

$GPGGA,141011.00,5003.96673955,N,01955.22940478,E,1,22,0.6,226.806,M,41.998,M,,*67

$GPGGA,141012.00,5003.96674103,N,01955.22940137,E,1,22,0.6,226.805,M,41.998,M,,*65

$GPGGA,141013.00,5003.96674172,N,01955.22939983,E,1,22,0.6,226.814,M,41.998,M,,*6B

$GPGGA,141014.00,5003.96674550,N,01955.22939746,E,1,22,0.6,226.802,M,41.998,M,,*68

$GPGGA,141015.00,5003.96674622,N,01955.22939811,E,1,22,0.6,226.821,M,41.998,M,,*63

$GPGGA,141016.00,5003.96674880,N,01955.22940700,E,1,22,0.6,226.810,M,41.998,M,,*65

$GPGGA,141017.00,5003.96674935,N,01955.22941105,E,1,22,0.6,226.816,M,41.998,M,,*6F

$GPGGA,141018.00,5003.96674603,N,01955.22941445,E,1,22,0.6,226.818,M,41.998,M,,*65

$GPGGA,141019.00,5003.96675508,N,01955.22942331,E,1,22,0.6,226.823,M,41.998,M,,*62

$GPGGA,141020.00,5003.96675826,N,01955.22942135,E,1,22,0.6,226.792,M,41.998,M,,*6A

$GPGGA,141021.00,5003.96675771,N,01955.22942590,E,1,22,0.6,226.798,M,41.998,M,,*67

$GPGGA,141022.00,5003.96676082,N,01955.22942099,E,1,22,0.6,226.787,M,41.998,M,,*6E

$GPGGA,141023.00,5003.96676085,N,01955.22943050,E,1,22,0.6,226.786,M,41.998,M,,*6D

$GPGGA,141024.00,5003.96676235,N,01955.22943061,E,1,22,0.6,226.790,M,41.998,M,,*66

$GPGGA,141025.00,5003.96677002,N,01955.22941958,E,1,22,0.6,226.772,M,41.998,M,,*6D

$GPGGA,141026.00,5003.96676812,N,01955.22942504,E,1,22,0.6,226.784,M,41.998,M,,*69

$GPGGA,141027.00,5003.96677433,N,01955.22941888,E,1,22,0.6,226.767,M,41.998,M,,*61

$GPGGA,141028.00,5003.96677342,N,01955.22941755,E,1,22,0.6,226.748,M,41.998,M,,*6D

$GPGGA,141029.00,5003.96677544,N,01955.22941461,E,1,22,0.6,226.743,M,41.998,M,,*63

$GPGGA,141030.00,5003.96677630,N,01955.22941677,E,1,22,0.6,226.764,M,41.998,M,,*6B

$GPGGA,141031.00,5003.96677475,N,01955.22941745,E,1,22,0.6,226.768,M,41.998,M,,*65

$GPGGA,141032.00,5003.96677672,N,01955.22940249,E,1,22,0.6,226.740,M,41.998,M,,*61

$GPGGA,141033.00,5003.96678206,N,01955.22940027,E,1,22,0.6,226.727,M,41.998,M,,*63

$GPGGA,141034.00,5003.96677891,N,01955.22940119,E,1,22,0.6,226.704,M,41.998,M,,*62

$GPGGA,141035.00,5003.96677818,N,01955.22940046,E,1,22,0.6,226.707,M,41.998,M,,*6A

$GPGGA,141036.00,5003.96676860,N,01955.22940524,E,1,22,0.6,226.701,M,41.998,M,,*60

$GPGGA,141037.00,5003.96676763,N,01955.22940170,E,1,22,0.6,226.690,M,41.998,M,,*61

$GPGGA,141038.00,5003.96676760,N,01955.22940657,E,1,22,0.6,226.692,M,41.998,M,,*6D

$GPGGA,141039.00,5003.96676707,N,01955.22940696,E,1,22,0.6,226.694,M,41.998,M,,*66

$GPGGA,141040.00,5003.96676719,N,01955.22940300,E,1,22,0.6,226.667,M,41.998,M,,*61

$GPGGA,141041.00,5003.96676956,N,01955.22939915,E,1,22,0.6,226.670,M,41.998,M,,*63

$GPGGA,141042.00,5003.96676444,N,01955.22940413,E,1,22,0.6,226.665,M,41.998,M,,*6F

$GPGGA,141043.00,5003.96676214,N,01955.22940386,E,1,22,0.6,226.693,M,41.998,M,,*6F

$GPGGA,141044.00,5003.96676424,N,01955.22940764,E,1,22,0.6,226.672,M,41.998,M,,*6A

$GPZDA,141044.015,06,03,2014,00,00*54

$GPGGA,141045.00,5003.96675854,N,01955.22941296,E,1,22,0.6,226.681,M,41.998,M,,*66

$GPGGA,141046.00,5003.96675642,N,01955.22940942,E,1,22,0.6,226.658,M,41.998,M,,*6B

$GPGGA,141047.00,5003.96675922,N,01955.22938992,E,1,22,0.6,226.650,M,41.998,M,,*69

$GPGGA,141048.00,5003.96675719,N,01955.22939002,E,1,22,0.6,226.638,M,41.998,M,,*6F

$GPGGA,141049.00,5003.96675686,N,01955.22939006,E,1,22,0.6,226.630,M,41.998,M,,*65

$GPGGA,141050.00,5003.96675366,N,01955.22939293,E,1,22,0.6,226.636,M,41.998,M,,*6E

$GPGGA,141051.00,5003.96675253,N,01955.22939761,E,1,22,0.6,226.624,M,41.998,M,,*63

$GPGGA,141052.00,5003.96672498,N,01955.22938972,E,1,23,0.5,226.721,M,41.998,M,,*6D

$GPGGA,141053.00,5003.96672545,N,01955.22938193,E,1,23,0.5,226.729,M,41.998,M,,*62

$GPGGA,141054.00,5003.96672227,N,01955.22937020,E,1,23,0.5,226.734,M,41.998,M,,*6C

$GPGGA,141055.00,5003.96672120,N,01955.22936668,E,1,23,0.5,226.740,M,41.998,M,,*61

$GPGGA,141056.00,5003.96671553,N,01955.22937010,E,1,23,0.5,226.757,M,41.998,M,,*6F

$GPGGA,141057.00,5003.96670727,N,01955.22937740,E,1,23,0.5,226.788,M,41.998,M,,*6E

$GPGGA,141058.00,5003.96671187,N,01955.22936501,E,1,23,0.5,226.751,M,41.998,M,,*6E

$GPGGA,141059.00,5003.96670792,N,01955.22935644,E,1,23,0.5,226.767,M,41.998,M,,*68

$GPGGA,141100.00,5003.96671294,N,01955.22934716,E,1,23,0.5,226.744,M,41.998,M,,*61

$GPGGA,141101.00,5003.96671818,N,01955.22935523,E,1,23,0.5,226.736,M,41.998,M,,*6E

$GPGGA,141102.00,5003.96670887,N,01955.22935484,E,1,23,0.5,226.761,M,41.998,M,,*64

$GPGGA,141103.00,5003.96671043,N,01955.22933673,E,1,23,0.5,226.720,M,41.998,M,,*6D

$GPGGA,141104.00,5003.96670884,N,01955.22933770,E,1,23,0.5,226.731,M,41.998,M,,*6A

$GPGGA,141105.00,5003.96671251,N,01955.22934222,E,1,23,0.5,226.723,M,41.998,M,,*6E

$GPGGA,141106.00,5003.96671045,N,01955.22933820,E,1,23,0.5,226.702,M,41.998,M,,*66

$GPGGA,141107.00,5003.96671272,N,01955.22932752,E,1,23,0.5,226.682,M,41.998,M,,*63

$GPGGA,141108.00,5003.96671041,N,01955.22933140,E,1,23,0.5,226.683,M,41.998,M,,*6B

$GPGGA,141109.00,5003.96671158,N,01955.22934100,E,1,23,0.5,226.678,M,41.998,M,,*64

$GPGGA,141110.00,5003.96671414,N,01955.22933779,E,1,23,0.5,226.654,M,41.998,M,,*60

$GPGGA,141111.00,5003.96671467,N,01955.22933015,E,1,23,0.5,226.625,M,41.998,M,,*6E

$GPGGA,141112.00,5003.96671173,N,01955.22933530,E,1,23,0.5,226.627,M,41.998,M,,*6D

$GPGGA,141113.00,5003.96670799,N,01955.22934490,E,1,23,0.5,226.616,M,41.998,M,,*61

$GPGGA,141114.00,5003.96670691,N,01955.22934350,E,1,23,0.5,226.587,M,41.998,M,,*6F

$GPGGA,141115.00,5003.96670619,N,01955.22933636,E,1,23,0.5,226.596,M,41.998,M,,*6C

$GPGGA,141116.00,5003.96670727,N,01955.22933357,E,1,23,0.5,226.600,M,41.998,M,,*6D

$GPGGA,141117.00,5003.96671104,N,01955.22933326,E,1,23,0.5,226.583,M,41.998,M,,*64

$GPGGA,141118.00,5003.96671056,N,01955.22933080,E,1,23,0.5,226.559,M,41.998,M,,*65

$GPGGA,141119.00,5003.96671685,N,01955.22932512,E,1,23,0.5,226.533,M,41.998,M,,*6F

$GPGGA,141120.00,5003.96671389,N,01955.22932491,E,1,23,0.5,226.534,M,41.998,M,,*61

$GPGGA,141121.00,5003.96671923,N,01955.22933215,E,1,23,0.5,226.512,M,41.998,M,,*65

$GPGGA,141122.00,5003.96671846,N,01955.22934306,E,1,23,0.5,226.507,M,41.998,M,,*64

$GPGGA,141123.00,5003.96671944,N,01955.22935111,E,1,23,0.5,226.521,M,41.998,M,,*67

$GPGGA,141124.00,5003.96672049,N,01955.22934699,E,1,23,0.5,226.516,M,41.998,M,,*65

$GPGGA,141125.00,5003.96672109,N,01955.22934884,E,1,23,0.5,226.519,M,41.998,M,,*6C

$GPGGA,141126.00,5003.96671739,N,01955.22936438,E,1,23,0.5,226.526,M,41.998,M,,*6C

$GPGGA,141127.00,5003.96671670,N,01955.22937487,E,1,23,0.5,226.512,M,41.998,M,,*63

$GPGGA,141128.00,5003.96671618,N,01955.22938127,E,1,23,0.5,226.506,M,41.998,M,,*67

$GPGGA,141129.00,5003.96671803,N,01955.22937328,E,1,23,0.5,226.500,M,41.998,M,,*66

$GPGGA,141130.00,5003.96672097,N,01955.22937412,E,1,23,0.5,226.482,M,41.998,M,,*6D

$GPGGA,141131.00,5003.96671951,N,01955.22938382,E,1,23,0.5,226.466,M,41.998,M,,*67

$GPGGA,141132.00,5003.96671589,N,01955.22938665,E,1,23,0.5,226.470,M,41.998,M,,*66

$GPGGA,141133.00,5003.96671411,N,01955.22938446,E,1,23,0.5,226.476,M,41.998,M,,*62

$GPGGA,141134.00,5003.96671466,N,01955.22938278,E,1,23,0.5,226.470,M,41.998,M,,*68

$GPGGA,141135.00,5003.96671436,N,01955.22938964,E,1,23,0.5,226.462,M,41.998,M,,*69

$GPGGA,141136.00,5003.96670527,N,01955.22939083,E,1,23,0.5,226.460,M,41.998,M,,*69

$GPGGA,141137.00,5003.96670321,N,01955.22941667,E,1,23,0.5,226.464,M,41.998,M,,*6F

$GPGGA,141138.00,5003.96669850,N,01955.22941424,E,1,23,0.5,226.452,M,41.998,M,,*65

$GPGGA,141139.00,5003.96669626,N,01955.22941196,E,1,23,0.5,226.443,M,41.998,M,,*67

